SALE TYPE,SOLD DATE,PROPERTY TYPE,ADDRESS,CITY,STATE,ZIP,PRICE,BEDS,BATHS,LOCATION,SQUARE FEET,LOT SIZE,YEAR BUILT,DAYS ON MARKET,$/SQUARE FEET,HOA/MONTH,STATUS,NEXT OPEN HOUSE START TIME,NEXT OPEN HOUSE END TIME,URL (SEE http://www.redfin.com/buy-a-home/comparative-market-analysis FOR INFO ON PRICING),SOURCE,MLS#,FAVORITE,INTERESTED,LATITUDE,LONGITUDE
MLS Listing,,Single Family Residential,2029 36th Ave,Oakland,CA,94601,515000,2,1.0,Fruitvale,813,3815,1909,59,633,,Active,December-30-2018 02:00 PM,December-30-2018 04:00 PM,http://www.redfin.com/CA/Oakland/2029-36th-Ave-94601/home/1957441,Bridge MLS,40844664,N,Y,37.7825782,-122.2164824
MLS Listing,,Single Family Residential,4019 Lyon Ave,OAKLAND,CA,94601,550000,4,2.0,OAKLAND,2099,6290,1912,1,262,,Active,,,http://www.redfin.com/CA/Oakland/4019-Lyon-Ave-94601/unit-A/home/1607235,MLSListings,ML81733950,N,Y,37.7826771,-122.2074831
MLS Listing,,Single Family Residential,1101 103Rd Ave,Oakland,CA,94603,400000,2,1.0,Stonehurst,1012,5360,1941,1,395,,Active,,,http://www.redfin.com/CA/Oakland/1101-103rd-Ave-94603/home/588388,Bridge MLS,40848744,N,Y,37.7384083,-122.1724985
MLS Listing,,Multi-Family (2-4 Unit),,Oakland,CA,94603-1539,600000,3,3.0,E Oakland,1800,9000,1945,1,333,,Active,,,http://www.redfin.com/CA/Oakland/Undisclosed-address-94603/home/1870126,Bridge MLS,40848742,N,Y,37.747528,-122.1702367
MLS Listing,,Single Family Residential,2202 E 20th,OAKLAND,CA,94601,799980,4,3.0,OAKLAND,2331,2500,2018,1,343,,Active,January-5-2019 01:00 PM,January-5-2019 04:00 PM,http://www.redfin.com/CA/Oakland/2202-E-20th-St-94606/home/148128170,MLSListings,ML81733929,N,Y,37.7888666,-122.2336576
MLS Listing,,Single Family Residential,2653 66Th Ave,Oakland,CA,94605,475000,2,1.0,Havenscourt,1351,3800,1925,2,352,,Active,December-30-2018 02:00 PM,December-30-2018 04:30 PM,http://www.redfin.com/CA/Oakland/2653-66th-Ave-94605/home/1995306,Bridge MLS,40848710,N,Y,37.7689803,-122.1842943
MLS Listing,,Single Family Residential,1041 Mandana Blvd,Oakland,CA,94610,1095000,3,1.5,Crocker Hghlands,1974,5750,1924,2,555,,Active,January-6-2019 02:00 PM,January-6-2019 04:30 PM,http://www.redfin.com/CA/Oakland/1041-Mandana-Blvd-94610/home/658869,Bridge MLS,40848699,N,Y,37.8126215,-122.2275641
MLS Listing,,Single Family Residential,1310 49Th Ave,Oakland,CA,94601,325000,3,1.0,Oakland,812,3000,1913,3,400,,Active,,,http://www.redfin.com/CA/Oakland/1310-49th-Ave-94601/home/812775,Bridge MLS,40848667,N,Y,37.7691493,-122.2098216
MLS Listing,,Single Family Residential,6450 Oakwood Dr,Oakland,CA,94611,1395000,3,3.0,Oakland Hills,2300,9587,1978,3,607,,Active,,,http://www.redfin.com/CA/Oakland/6450-Oakwood-Dr-94611/home/1971103,Bridge MLS,40848663,N,Y,37.8397754,-122.2019413
MLS Listing,,Single Family Residential,5618 Gaskill,Oakland,CA,94608-2714,530000,2,1.0,Oakland,900,2800,1928,4,589,,Active,,,http://www.redfin.com/CA/Oakland/5618-Gaskill-St-94608/home/1992430,Bridge MLS,40848639,N,Y,37.8397318,-122.2800762
MLS Listing,,Townhouse,8347 International Blvd,Oakland,CA,94621,305000,3,1.5,International,1397,2378,1987,4,218,153,Active,,,http://www.redfin.com/CA/Oakland/8347-International-Blvd-94621/home/582149,Bridge MLS,40848630,N,Y,37.7540356,-122.1782635
MLS Listing,,Single Family Residential,2422 E 24th St,Oakland,CA,94612,900000,7,3.0,Oakland,2364,4920,1902,4,381,,Active,,,http://www.redfin.com/CA/Oakland/2422-E-24th-St-94601/home/528502,Bridge MLS,40848619,N,Y,37.7894686,-122.2266333
MLS Listing,,Single Family Residential,9501 C St,Oakland,CA,94603,465000,3,1.0,East Oakland,1032,6875,1924,4,451,,Active,,,http://www.redfin.com/CA/Oakland/9501-C-St-94603/home/587640,Bridge MLS,40848609,N,Y,37.7443555,-122.1764897
MLS Listing,,Vacant Land,9670 Mountain Blvd,Oakland,CA,94605,145000,,,Oak Knoll,,8074,,5,,,Active,,,http://www.redfin.com/CA/Oakland/9670-Mountain-Blvd-94605/home/146426344,Bridge MLS,40848603,N,Y,37.7553519,-122.1488322
MLS Listing,,Vacant Land,9680 Mountain Blvd,Oakland,CA,94605,125000,,,East Oakl Hills,,5840,,5,,,Active,,,http://www.redfin.com/CA/Oakland/9680-Mountain-Blvd-94605/home/146426350,Bridge MLS,40848602,N,Y,37.75515,-122.148996
MLS Listing,,Single Family Residential,125 Louvaine Ave,Oakland,CA,94603,425000,2,1.0,Oakland,825,4056,1942,5,515,,Active,January-5-2019 01:00 PM,January-5-2019 04:00 PM,http://www.redfin.com/CA/Oakland/125-Louvaine-Ave-94603/home/590525,Bridge MLS,40848600,N,Y,37.7288467,-122.1842943
MLS Listing,,Single Family Residential,6115 Outlook Ave,Oakland,CA,94605,799000,3,3.0,Millsmont Area,3210,3940,1934,8,249,,Active,,,http://www.redfin.com/CA/Oakland/6115-Outlook-Ave-94605/home/564915,Bridge MLS,40848573,N,Y,37.7776759,-122.1788844
MLS Listing,,Single Family Residential,804 51st Ave,Oakland,CA,94601,299000,2,1.5,Melrose,1490,5000,1906,8,201,,Active,,,http://www.redfin.com/CA/Oakland/804-51st-Ave-94601/home/690925,Bridge MLS,40848568,N,Y,37.7652845,-122.2118277
MLS Listing,,Single Family Residential,9835 Burr St,Oakland,CA,94605,699000,5,3.5,Toler Heights,3876,6000,2018,8,180,,Active,,,http://www.redfin.com/CA/Oakland/9835-Burr-St-94605/home/598655,Bridge MLS,40848565,N,Y,37.749826,-122.155414
MLS Listing,,Single Family Residential,3714 KELLER Ave,Oakland,CA,94605,699000,4,2.5,Eastmont,2451,5000,1942,9,285,,Active,,,http://www.redfin.com/CA/Oakland/3714-Keller-Ave-94605/home/1289987,Bridge MLS,40848547,N,Y,37.7698437,-122.1584394
MLS Listing,,Single Family Residential,5737 Kingsley Cir,Oakland,CA,94605,365000,3,1.0,Alameda County,858,2178,1924,9,425,,Active,,,http://www.redfin.com/CA/Oakland/5737-Kingsley-Cir-94605/home/566923,BAREIS,21831147,N,Y,37.7730516,-122.1911229
MLS Listing,,Condo/Co-op,8065 Greenridge Dr,Oakland,CA,94605,430000,2,1.0,Sequoyah,899,,1964,9,478,259,Active,December-30-2018 02:00 PM,December-30-2018 04:00 PM,http://www.redfin.com/CA/Oakland/8065-Greenridge-Dr-94605/home/95473248,Bridge MLS,40848536,N,Y,37.7728359,-122.1524071
MLS Listing,,Vacant Land,13193 Skyline Blvd,Oakland,CA,94619,550000,,,Oakland,,103850,,10,,,Active,,,http://www.redfin.com/CA/Oakland/13193-Skyline-Blvd-94619/home/148535865,Bridge MLS,40848515,N,Y,37.7873891,-122.1502605
MLS Listing,,Condo/Co-op,1 Kelton Ct Unit 3J,Oakland,CA,94611,475000,1,1.0,Kelton Court,720,49845,1974,10,660,418,Active,,,http://www.redfin.com/CA/Oakland/1-Kelton-Ct-94611/unit-3J/home/1880332,Bridge MLS,40848489,N,Y,37.8243896,-122.2508859
MLS Listing,,Single Family Residential,7081 Elverton Dr,Oakland,CA,94611,1199000,4,3.0,Montclair Hills,2981,13779,1992,10,402,,Active,,,http://www.redfin.com/CA/Oakland/7081-Elverton-Dr-94611/home/1342622,Bridge MLS,40848480,N,Y,37.8446284,-122.1974136
MLS Listing,,Single Family Residential,28 Contra Costa Pl,OAKLAND,CA,94618,1780000,3,3.0,OAKLAND,2553,8160,1994,11,697,,Active,,,http://www.redfin.com/CA/Oakland/28-Contra-Costa-Pl-94618/home/2000769,MLSListings,ML81733659,N,Y,37.8473229,-122.2348553
MLS Listing,,Single Family Residential,1931 104th Ave,Oakland,CA,94603-3333,699000,5,3.0,Oakland,2060,2060,1918,11,339,,Active,,,http://www.redfin.com/CA/Oakland/1931-104th-Ave-94603/home/1761692,Bridge MLS,40848435,N,Y,37.7419431,-122.1614997
MLS Listing,,Single Family Residential,6317 Westover Dr,Oakland,CA,94611,899000,2,2.0,Oakland,1430,8120,1949,11,629,,Active,December-30-2018 12:00 PM,December-30-2018 03:00 PM,http://www.redfin.com/CA/Oakland/6317-Westover-Dr-94611/home/1806882,San Francisco MLS,479570,N,Y,37.8305114,-122.1962142
MLS Listing,,Single Family Residential,1739 Chase St,Oakland,CA,94607,700000,3,2.0,Oakland West,1400,2657,1885,13,500,,Active,,,http://www.redfin.com/CA/Oakland/1739-Chase-St-94607/home/2029374,Bridge MLS,40848367,N,Y,37.808411,-122.301117
MLS Listing,,Single Family Residential,1344 64TH,Oakland,CA,94621,539000,5,3.0,Oakland,1289,3625,1924,13,418,,Active,,,http://www.redfin.com/CA/Oakland/1344-64th-Ave-94621/home/2036699,Bridge MLS,40848345,N,Y,37.762185,-122.197049
MLS Listing,,Vacant Land,0 18th St,Oakland,CA,94607,300000,,,Oakland,,4000,,13,,,Active,,,http://www.redfin.com/CA/Oakland/18th-St-94612/home/22689042,Bridge MLS,40848344,N,Y,37.810067,-122.276948
MLS Listing,,Single Family Residential,2206 Church St,Oakland,CA,94605,409000,3,1.0,Havenscourt,1117,3650,1942,15,366,,Active,,,http://www.redfin.com/CA/Oakland/2206-Church-St-94605/home/1728010,Bridge MLS,40848300,N,Y,37.7660426,-122.1824319
MLS Listing,,Single Family Residential,7010 Herbert Guice Way,Oakland,CA,94621,199000,1,1.0,Oakland,364,2300,1928,16,547,,Active,,,http://www.redfin.com/CA/Oakland/7010-Herbert-Guice-Way-94621/home/1952679,San Francisco MLS,479518,N,Y,37.7595117,-122.1902804
MLS Listing,,Single Family Residential,561 Aileen St,Oakland,CA,94609,1298888,3,2.0,Idora Park,2234,4400,1931,16,581,,Active,December-30-2018 01:00 PM,December-30-2018 04:00 PM,http://www.redfin.com/CA/Oakland/561-Aileen-St-94609/home/1963933,Bridge MLS,40848281,N,Y,37.8417249,-122.2634613
MLS Listing,,Vacant Land,1074 Rispin Dr,Oakland,CA,94603,269000,,,Oakland,,28096,,16,,,Active,,,http://www.redfin.com/CA/Oakland/1074-Rispin-Dr-94603/home/148493770,Bridge MLS,40848268,N,Y,37.7355719,-122.1802812
MLS Listing,,Single Family Residential,9869 Toler Ave,Oakland,CA,94603,699000,5,2.0,Oakland,1736,3160,1967,16,403,,Active,,,http://www.redfin.com/CA/Oakland/9869-Toler-Ave-94603/home/945059,CRMLS,OC18291576,N,Y,37.7472076,-122.15977
MLS Listing,,Single Family Residential,182 6Th St,Oakland,CA,94607,729000,6,3.0,China Town,1408,2500,1896,16,518,,Active,,,http://www.redfin.com/CA/Oakland/182-6th-St-94607/home/524559,Bridge MLS,40848226,N,Y,37.7965197,-122.2680694
MLS Listing,,Single Family Residential,2124 99Th Ave,Oakland,CA,94603,550000,3,2.0,Las Palmas,1041,7500,1912,16,528,,Active,December-30-2018 02:00 PM,December-30-2018 04:00 PM,http://www.redfin.com/CA/Oakland/2124-99th-Ave-94603/home/1564220,Bridge MLS,40848214,N,Y,37.7457811,-122.160657
MLS Listing,,Single Family Residential,1134 53rd St,Oakland,CA,94608,799000,2,2.0,Nobe,1050,3210,1912,17,761,,Active,,,http://www.redfin.com/CA/Oakland/1134-53rd-St-94608/home/529146,Bridge MLS,40848185,N,Y,37.8371346,-122.2830888
MLS Listing,,Single Family Residential,847 30th St,Oakland,CA,94608-4509,689000,4,2.0,West Oakland,1512,3500,1900,17,456,,Active,,,http://www.redfin.com/CA/Oakland/847-30th-St-94608/home/810734,Bridge MLS,40848183,N,Y,37.8200815,-122.2749369
MLS Listing,,Single Family Residential,1078 16th St,Oakland,CA,94607,499000,2,1.0,West Oakland,614,1320,1916,17,813,,Active,,,http://www.redfin.com/CA/Oakland/1078-16th-St-94607/home/1992085,Bridge MLS,40848178,N,Y,37.8108738,-122.2839748
MLS Listing,,Multi-Family (2-4 Unit),1257 75Th Ave,Oakland,CA,94621,838000,8,4.0,Oakland,3112,10000,1943,17,269,,Active,,,http://www.redfin.com/CA/Oakland/1257-75th-Ave-94621/home/1843562,Bridge MLS,40848172,N,Y,37.757953,-122.187118
MLS Listing,,Multi-Family (2-4 Unit),1711 27Th Ave,Oakland,CA,94601,669500,4,4.0,Oakland,3220,4013,1932,17,208,,Active,,,http://www.redfin.com/CA/Oakland/1711-27th-Ave-94601/home/2113459,Bridge MLS,40848162,N,Y,37.7835172,-122.2290097
MLS Listing,,Single Family Residential,1649 34Th Ave,Oakland,CA,94601,599000,5,2.0,Fruitvale Distr,2242,4000,1915,17,267,,Active,,,http://www.redfin.com/CA/Oakland/1649-34th-Ave-94601/home/1913896,Bridge MLS,40848153,N,Y,37.7805993,-122.222112
MLS Listing,,Single Family Residential,9915 B St,Oakland,CA,94603,499000,3,2.5,Oakland,1224,3750,1917,17,408,,Active,January-6-2019 01:30 PM,January-6-2019 04:00 PM,http://www.redfin.com/CA/Oakland/9915-B-St-94603/home/1458751,Bridge MLS,40848138,N,Y,37.7416077,-122.1733854
MLS Listing,,Single Family Residential,1166 Elmhurst Ave,Oakland,CA,94603,529999,5,2.0,Elmhurst,1380,3220,1925,18,384,,Active,,,http://www.redfin.com/CA/Oakland/1166-Elmhurst-Ave-94603/home/587182,Bridge MLS,40848108,N,Y,37.7440693,-122.1754697
MLS Listing,,Vacant Land,0 Glendome Cir,Oakland,CA,94602,60000,,,Oakland,,3631,,18,,,Active,,,http://www.redfin.com/CA/Oakland/Glendome-Cir-94602/home/22705505,Bridge MLS,40848090,N,Y,37.81303,-122.219091
MLS Listing,,Single Family Residential,1115 84th Ave,Oakland,CA,94621,300000,2,1.0,East Oakland,765,5200,1940,18,392,,Active,,,http://www.redfin.com/CA/Oakland/1115-84th-Ave-94621/home/583532,Bridge MLS,40848088,N,Y,37.7520818,-122.182443
MLS Listing,,Single Family Residential,1020 Willow St,Oakland,CA,94607,868000,4,4.0,West Oakland,2000,2430,1895,18,434,,Active,December-30-2018 01:30 PM,December-30-2018 04:00 PM,http://www.redfin.com/CA/Oakland/1020-Willow-St-94607/home/1139687,Bridge MLS,40848075,N,Y,37.8099787,-122.2984272
MLS Listing,,Multi-Family (2-4 Unit),1630 Sunshine Ct,Oakland,CA,94621,725000,6,3.0,,2929,,1952,19,248,,Active,,,http://www.redfin.com/CA/Oakland/1630-Sunshine-Ct-94621/home/1981531,SDMLS,180067148,N,Y,37.7597954,-122.1832301
MLS Listing,,Single Family Residential,15 Perth Pl,Berkeley,CA,94705,2799888,4,4.0,Claremont Hills,4200,6856,2019,19,667,,Active,,,http://www.redfin.com/CA/Berkeley/15-Perth-Pl-94705/home/148446852,Bridge MLS,40847997,N,Y,37.8592038,-122.2325436
MLS Listing,,Multi-Family (2-4 Unit),1753 16Th Ave,Oakland,CA,94606,895000,6,4.0,San Antonio Park,4074,5520,1910,19,220,,Active,,,http://www.redfin.com/CA/Oakland/1753-16th-Ave-94606/home/1701762,Bridge MLS,40847992,N,Y,37.7916186,-122.2414369
MLS Listing,,Single Family Residential,3738 Virden Ave,Oakland,CA,94619-1537,699998,3,2.0,Redwood Heights,1689,4136,1950,19,414,,Active,,,http://www.redfin.com/CA/Oakland/3738-Virden-Ave-94619/home/1666999,Bridge MLS,40847988,N,Y,37.7957372,-122.1908125
MLS Listing,,Vacant Land,1223 33Rd Ave,Oakland,CA,94601,995000,,,Fruitvale,,7592,,20,,,Active,,,http://www.redfin.com/CA/Oakland/1223-33rd-Ave-94601/home/148443642,Bridge MLS,40847980,N,Y,37.776409,-122.225338
MLS Listing,,Single Family Residential,2251 87TH Ave,Oakland,CA,94605,379900,3,1.0,East Oakland,1364,3300,1921,20,279,,Active,,,http://www.redfin.com/CA/Oakland/2251-87th-Ave-94605/home/586305,Bridge MLS,40847975,N,Y,37.7564162,-122.1661899
MLS Listing,,Multi-Family (2-4 Unit),1623 34th Ave,Oakland,CA,94601,740000,4,4.0,Oakland,2425,5480,1957,20,305,,Active,,,http://www.redfin.com/CA/Oakland/1623-34th-Ave-94601/home/552090,Bridge MLS,40847974,N,Y,37.7802335,-122.2223337
MLS Listing,,Single Family Residential,3149 64th Ave,Oakland,CA,94605,525000,4,2.0,Chevrolet Park,1666,6300,1925,20,315,,Active,,,http://www.redfin.com/CA/Oakland/3149-64th-Ave-94605/home/561950,Bridge MLS,40847969,N,Y,37.7731566,-122.1812346
MLS Listing,,Multi-Family (2-4 Unit),5711 Gaskill St,Oakland,CA,94608,925000,5,2.0,Oakland,2000,4000,1908,21,463,,Active,December-30-2018 02:00 PM,December-30-2018 04:00 PM,http://www.redfin.com/CA/Oakland/5711-Gaskill-St-94608/home/1495252,Bridge MLS,40847919,Y,Y,37.840954,-122.280921
MLS Listing,,Single Family Residential,5522 Walnut St,Oakland,CA,94605,485000,3,1.0,Oakland,1279,3225,1927,22,379,,Active,,,http://www.redfin.com/CA/Oakland/5522-Walnut-St-94605/home/1096664,Bridge MLS,40847906,N,Y,37.7741175,-122.1927635
MLS Listing,,Multi-Family (2-4 Unit),9701 Walnut St,Oakland,CA,94603,899990,8,4.0,Oakland,,7500,1920,22,,,Active,,,http://www.redfin.com/CA/Oakland/9701-Walnut-St-94603/home/1856252,MetroList,18080765,N,Y,37.745953,-122.169136
MLS Listing,,Single Family Residential,132 Frisbie St,Oakland,CA,94611,749000,3,1.0,Echo/Glen Park,1320,3150,1927,22,567,,Active,,,http://www.redfin.com/CA/Oakland/132-Frisbie-St-94611/home/525903,Bridge MLS,40847893,N,Y,37.8187506,-122.2590745
MLS Listing,,Single Family Residential,714 33rd St,OAKLAND,CA,94609,699000,3,2.0,OAKLAND,1200,3000,1904,22,583,,Active,,,http://www.redfin.com/CA/Oakland/714-33rd-St-94609/home/525744,MLSListings,ML81733019,N,Y,37.8233085,-122.2720571
MLS Listing,,Single Family Residential,1252 E 34Th St,Oakland,CA,94610,595000,2,1.0,Baja Glenview,1047,4788,1918,22,568,,Active,,,http://www.redfin.com/CA/Oakland/1252-E-34th-St-94610/home/1802736,Bridge MLS,40847886,N,Y,37.8022691,-122.2327944
MLS Listing,,Condo/Co-op,466 Crescent St #115,Oakland,CA,94610,699000,3,2.0,Alameda County,1180,42488,1971,22,592,431,Active,,,http://www.redfin.com/CA/Oakland/466-Crescent-St-94610/unit-115/home/526472,BAREIS,21830566,N,Y,37.8133239,-122.2497277
MLS Listing,,Condo/Co-op,398 Adams St #207,Oakland,CA,94610,710000,2,2.0,Adams Point,1355,,1966,23,524,468,Active,December-30-2018 02:00 PM,December-30-2018 04:00 PM,http://www.redfin.com/CA/Oakland/398-Adams-St-94610/unit-207/home/525843,Bridge MLS,40847860,N,Y,37.815313,-122.253772
MLS Listing,,Multi-Family (2-4 Unit),3338 San Leandro St,Oakland,CA,94601,749000,3,2.0,Fruitvale,1890,2080,,23,396,,Active,,,http://www.redfin.com/CA/Oakland/3338-San-Leandro-St-94601/home/133474072,Bridge MLS,40847851,N,Y,37.7746761,-122.2252044
MLS Listing,,Single Family Residential,1406 Fairview St,Berkeley,CA,94702,799000,3,1.0,Berkeley,1545,3996,1906,23,517,,Active,,,http://www.redfin.com/CA/Berkeley/1406-Fairview-St-94702/home/652567,Bridge MLS,40847819,N,Y,37.8492143,-122.2795003
MLS Listing,,Single Family Residential,433 Hale Ave,Oakland,CA,94603,499000,3,2.0,Brookfield Villg,1303,5000,1951,23,383,,Active,,,http://www.redfin.com/CA/Oakland/433-Hale-Ave-94603/home/1937232,Bridge MLS,40847813,N,Y,37.7329293,-122.1810572
MLS Listing,,Vacant Land,Lauriston Ct,Oakland,CA,94611,195000,,,Oakland,,9082,,23,,,Active,,,http://www.redfin.com/CA/Oakland/Lauriston-Ct-94611/home/22689108,Bridge MLS,40847803,N,Y,37.845168,-122.204504
MLS Listing,,Condo/Co-op,3151 Cuthbert Ave #2,Oakland,CA,94602,399888,2,1.5,Oakland,1148,6802,1985,23,348,80,Active,,,http://www.redfin.com/CA/Oakland/3151-Cuthbert-Ave-94602/unit-2/home/1432678,Bridge MLS,40847801,N,Y,37.7941264,-122.2145141
MLS Listing,,Condo/Co-op,325 Vernon St #205,Oakland,CA,94610,750000,3,2.0,Adams Point,1416,,1980,24,530,583,Active,December-30-2018 02:00 PM,December-30-2018 04:00 PM,http://www.redfin.com/CA/Oakland/325-Vernon-St-94610/unit-205/home/996912,Bridge MLS,40847708,N,Y,37.815113,-122.2569812
MLS Listing,,Vacant Land,1448 16th St,Oakland,CA,94607,475000,,,West Oak,,3847,,24,,,Active,,,http://www.redfin.com/CA/Oakland/1448-16th-St-94607/home/148435034,Bridge MLS,40847690,N,Y,37.8125956,-122.2923762
MLS Listing,,Single Family Residential,964 21St St,Oakland,CA,94607,499000,3,2.0,West Oakland,840,2400,1982,25,594,,Active,,,http://www.redfin.com/CA/Oakland/964-21st-St-94607/home/1275511,Bridge MLS,40847619,N,Y,37.8139176,-122.2805082
MLS Listing,,Single Family Residential,2638 35th Ave,Oakland,CA,94619,555998,4,2.0,Allendale Park,1292,3135,1913,25,430,,Active,,,http://www.redfin.com/CA/Oakland/2638-35th-Ave-94619/home/1386188,Bridge MLS,40847609,N,Y,37.7883068,-122.2094337
MLS Listing,,Single Family Residential,7423 Fresno St,Oakland,CA,94605,699000,4,3.0,Oakland,1724,5492,1941,25,405,,Active,,,http://www.redfin.com/CA/Oakland/7423-Fresno-St-94605/home/1456975,Bridge MLS,40847608,N,Y,37.7634984,-122.1781748
MLS Listing,,Single Family Residential,6842 Flora St,Oakland,CA,94621,449000,2,1.0,Havenscourt,1005,3330,1926,25,447,,Active,,,http://www.redfin.com/CA/Oakland/6842-Flora-St-94621/home/1642569,Bridge MLS,40847591,N,Y,37.7621573,-122.1883294
MLS Listing,,Condo/Co-op,5283 Broadway Ter Unit 3B,Oakland,CA,94618,1195000,2,2.0,Rockridge,1897,,1976,25,630,350,Active,,,http://www.redfin.com/CA/Oakland/5283-Broadway-Ter-94618/unit-3B/home/2045094,Bridge MLS,40847568,N,Y,37.8373497,-122.2482397
MLS Listing,,Single Family Residential,1415 PERALTA St,Oakland,CA,94607,875000,3,3.5,Prescott,1600,1250,2018,25,547,,Active,December-30-2018 02:00 PM,December-30-2018 04:00 PM,http://www.redfin.com/CA/Oakland/1415-Peralta-St-94607/home/144474764,Bridge MLS,40847557,N,Y,37.8116896,-122.2937029
MLS Listing,,Multi-Family (2-4 Unit),3401 Dakota,Oakland,CA,94602,729000,2,2.0,Laurel District,1320,5740,1943,25,552,,Active,,,http://www.redfin.com/CA/Oakland/3401-Dakota-St-94602/home/540205,Bridge MLS,40847546,N,Y,37.7935848,-122.2030053
MLS Listing,,Single Family Residential,2040 Crosby Ave,Oakland,CA,94601,699000,4,2.0,Alameda County,1601,4143,1914,25,437,,Active,December-30-2018 02:00 PM,December-30-2018 04:00 PM,http://www.redfin.com/CA/Oakland/2040-Crosby-Ave-94601/home/835379,BAREIS,21830371,N,Y,37.7827741,-122.2168481
MLS Listing,,Condo/Co-op,1343 E 26Th St,Oakland,CA,94606,375000,2,1.0,Highland Park,810,9999,1964,26,463,401,Active,,,http://www.redfin.com/CA/Oakland/1343-E-26th-St-94606/home/12126725,Bridge MLS,40847512,N,Y,37.796672,-122.235595
MLS Listing,,Townhouse,7400 Rudsdale St Unit D,Oakland,CA,94621,425000,3,2.0,East Oakland,1272,900,1985,26,334,150,Active,,,http://www.redfin.com/CA/Oakland/7400-Rudsdale-St-94621/unit-D/home/125083323,Bridge MLS,40847503,N,Y,37.7575436,-122.1879685
MLS Listing,,Multi-Family (2-4 Unit),3105 Telegraph Ave,Berkeley,CA,94705,1895000,7,4.0,Berkeley,2918,3597,1918,26,649,,Active,,,http://www.redfin.com/CA/Berkeley/3105-Telegraph-Ave-94705/home/1414231,Bridge MLS,40847490,N,Y,37.853476,-122.259678
MLS Listing,,Vacant Land,340 mcarthur Ave,San Leandro,CA,94577,799000,,,San Leandro,,1964,,26,,,Active,,,http://www.redfin.com/CA/San-Leandro/340-MacArthur-Blvd-94577/home/112987564,Bridge MLS,40847485,N,Y,37.740013,-122.146266
MLS Listing,,Single Family Residential,556 El Dorado Ave,Oakland,CA,94611,625000,1,1.0,Piedmont Avenue,896,2009,1925,26,698,,Active,December-30-2018 02:00 PM,December-30-2018 04:30 PM,http://www.redfin.com/CA/Oakland/556-El-Dorado-Ave-94611/home/1507792,Bridge MLS,40847469,N,Y,37.821746,-122.2537093
MLS Listing,,Condo/Co-op,801 Franklin St #824,Oakland,CA,94607,495000,1,1.0,Chinatown,810,,1976,27,611,380,Active,December-30-2018 02:00 PM,December-30-2018 04:00 PM,http://www.redfin.com/CA/Oakland/801-Franklin-St-94607/unit-824/home/1773557,Bridge MLS,40847449,N,Y,37.8002294,-122.272868
MLS Listing,,Single Family Residential,6839 Sherwick Dr,Berkeley,CA,94705,1475000,4,3.5,Claremont Hills,3590,6819,2006,27,411,,Active,,,http://www.redfin.com/CA/Berkeley/6839-Sherwick-Dr-94705/home/12110872,Bridge MLS,40847448,N,Y,37.8562404,-122.2233975
MLS Listing,,Single Family Residential,324 Jones Ave,Oakland,CA,94603,500000,2,1.0,Brookfield,1032,4056,1942,27,484,,Active,,,http://www.redfin.com/CA/Oakland/324-Jones-Ave-94603/home/591451,Bridge MLS,40847433,N,Y,37.7336587,-122.1889502
MLS Listing,,Multi-Family (2-4 Unit),515 Valle Vista Ave,Oakland,CA,94610,1499999,4,4.0,Piedmont/Grand,3105,6563,1916,27,483,,Active,,,http://www.redfin.com/CA/Oakland/515-Valle-Vista-Ave-94610/home/1234285,Bridge MLS,40847375,N,Y,37.8149019,-122.2472882
MLS Listing,,Single Family Residential,6230 Laird Ave,OAKLAND,CA,94605,799000,4,1.5,OAKLAND,1864,5000,1920,29,429,,Active,December-30-2018 01:00 PM,December-30-2018 04:00 PM,http://www.redfin.com/CA/Oakland/6230-Laird-Ave-94605/home/564486,MLSListings,ML81732440,N,Y,37.7757705,-122.1785296
MLS Listing,,Single Family Residential,3715 Virden Ave,Oakland,CA,94619,799000,6,3.0,Redwood Heights,2300,3325,1928,30,347,,Active,,,http://www.redfin.com/CA/Oakland/3715-Virden-Ave-94619/home/547600,Bridge MLS,40847287,N,Y,37.7957716,-122.1914333
MLS Listing,,Vacant Land,6500 Girvin,Oakland,CA,94611,275000,,,Oakland,,11666,,30,,,Active,,,http://www.redfin.com/CA/Oakland/6500-Girvin-Dr-94611/home/22725719,Bridge MLS,40847286,N,Y,37.829365,-122.193253
MLS Listing,,Multi-Family (2-4 Unit),2223 E 23rd,Oakland,CA,94606,1186000,12,6.0,Oakland,3981,7000,1898,30,298,,Active,,,http://www.redfin.com/CA/Oakland/2223-E-23rd-St-94606/home/1329197,Bridge MLS,40847253,N,Y,37.790628,-122.231358
MLS Listing,,Single Family Residential,7217 Skyline Blvd,Oakland,CA,94611,1395000,4,3.5,Alameda County,,7841,2006,30,,,Active,,,http://www.redfin.com/CA/Oakland/7217-Skyline-Blvd-94611/home/12348763,BAREIS,21830135,N,Y,37.8428479,-122.1967539
MLS Listing,,Multi-Family (2-4 Unit),9844 Holly St,Oakland,CA,94603,750000,8,4.0,Oakland,3648,7500,1963,30,206,,Active,,,http://www.redfin.com/CA/Oakland/9844-Holly-St-94603/home/1243972,Bridge MLS,40847226,N,Y,37.744236,-122.1685515
MLS Listing,,Vacant Land,0 Fontaine St,Oakland,CA,94605,295000,,,Oakland,,17707,,30,,,Active,,,http://www.redfin.com/CA/Oakland/Fontaine-St-94605/home/22720764,Bridge MLS,40847228,N,Y,37.761958,-122.157152
MLS Listing,,Single Family Residential,1432 Wood St,Oakland,CA,94607,1090000,3,2.5,West Oakland,1770,1856,2017,30,616,,Active,December-30-2018 02:00 PM,December-30-2018 04:00 PM,http://www.redfin.com/CA/Oakland/1432-Wood-St-94607/home/148372791,Bridge MLS,40847183,N,Y,37.8135526,-122.2974232
MLS Listing,,Single Family Residential,7225 Ney Ave,Oakland,CA,94605,795000,7,3.0,Eastmont Hills,2175,4599,1961,31,366,,Active,,,http://www.redfin.com/CA/Oakland/7225-Ney-Ave-94605/home/1517128,Bridge MLS,40847157,N,Y,37.7701582,-122.1716448
MLS Listing,,Single Family Residential,2068 85th Ave,Oakland,CA,94621,385000,2,1.0,East Oakland,1027,3200,1939,31,375,,Active,,,http://www.redfin.com/CA/Oakland/2068-85th-Ave-94621/home/1290017,Bridge MLS,40847113,N,Y,37.7573432,-122.168995
MLS Listing,,Single Family Residential,4410 San Carlos Ave,Oakland,CA,94601,489000,2,1.0,Maxwell Pk Area,880,2772,1904,31,556,,Active,December-30-2018 02:00 PM,December-30-2018 04:00 PM,http://www.redfin.com/CA/Oakland/4410-San-Carlos-Ave-94601/home/728744,Bridge MLS,40847085,N,Y,37.7783149,-122.2075163
MLS Listing,,Single Family Residential,1940 100Th Ave,Oakland,CA,94603,480000,3,1.0,Oakland,877,4104,1921,31,547,,Active,,,http://www.redfin.com/CA/Oakland/1940-100th-Ave-94603/home/1342076,Bridge MLS,40847065,N,Y,37.7444327,-122.1621761
MLS Listing,,Single Family Residential,7909 Sunkist Dr,Oakland,CA,94605,725000,2,2.0,Eastmont Hills,1520,5850,1951,31,477,,Active,,,http://www.redfin.com/CA/Oakland/7909-Sunkist-Dr-94605/home/980740,Bridge MLS,40847061,N,Y,37.76799,-122.1615884
MLS Listing,,Single Family Residential,8120 Idlewood St,Oakland,CA,94605,410000,2,1.0,Eastmont,1025,3330,1939,32,400,,Active,,,http://www.redfin.com/CA/Oakland/8120-Idlewood-St-94605/home/1801077,Bridge MLS,40847044,N,Y,37.7626426,-122.1662896
MLS Listing,,Single Family Residential,1508 Willow St,Oakland,CA,94607,735000,4,2.5,West Oakland,2161,3720,1984,32,340,,Active,,,http://www.redfin.com/CA/Oakland/1508-Willow-St-94607/home/840281,Bridge MLS,40846998,N,Y,37.8133508,-122.295714
MLS Listing,,Single Family Residential,2161 40Th Ave,Oakland,CA,94601,538000,3,1.0,Fruitvale,1556,2720,1927,32,346,,Active,,,http://www.redfin.com/CA/Oakland/2161-40th-Ave-94601/home/591887,Bridge MLS,40846967,N,Y,37.7808118,-122.2113068
MLS Listing,,Single Family Residential,1946 E 22Nd St,Oakland,CA,94606,454000,2,1.0,Highland Park,1056,5320,1915,32,430,,Active,,,http://www.redfin.com/CA/Oakland/1946-E-22nd-St-94606/home/1888344,Bridge MLS,40846903,N,Y,37.7918466,-122.2343456
MLS Listing,,Single Family Residential,2737 Parker Ave,Oakland,CA,94605,420000,2,1.0,Macarthur Height,939,3800,1925,33,447,,Active,,,http://www.redfin.com/CA/Oakland/2737-Parker-Ave-94605/home/1224280,Bridge MLS,40846857,N,Y,37.7654539,-122.1693054
MLS Listing,,Single Family Residential,3432 Storer Ave,Oakland,CA,94619,649900,2,1.0,Maxwell  Park,1064,4557,1920,33,611,,Active,,,http://www.redfin.com/CA/Oakland/3432-Storer-Ave-94619/home/1031091,Bridge MLS,40846834,N,Y,37.7852256,-122.1948474
MLS Listing,,Vacant Land,Crestmont Dr,Oakland,CA,94619,999000,,,Oakland,,55698,,33,,,Active,,,http://www.redfin.com/CA/Oakland/Crestmont-Dr-94619/home/22688485,Bridge MLS,40846810,N,Y,37.79817,-122.175516
MLS Listing,,Single Family Residential,5990 Racine St,Oakland,CA,94609,897900,3,1.0,Lwr Rockridge,1221,3325,1911,33,735,,Active,,,http://www.redfin.com/CA/Oakland/5990-Racine-St-94609/home/659456,Bridge MLS,40846807,N,Y,37.8462742,-122.2617332
MLS Listing,,Multi-Family (2-4 Unit),3011 E 19th St,Oakland,CA,94601,850000,5,3.5,Oakland,2652,6250,1915,34,321,,Active,,,http://www.redfin.com/CA/Oakland/3011-E-19th-St-94601/home/1618862,San Francisco MLS,479008,N,Y,37.782932,-122.22434
MLS Listing,,Vacant Land,,Oakland,CA,94602,179000,,,Oakland,,8199,,35,,,Active,,,http://www.redfin.com/CA/Piedmont/Undisclosed-address-94602/home/22727665,Bridge MLS,40846714,N,Y,37.807607,-122.195967
MLS Listing,,Single Family Residential,6608 Outlook Ave,Oakland,CA,94605,875000,4,3.0,Bayview,2034,7000,1928,36,430,,Active,,,http://www.redfin.com/CA/Oakland/6608-Outlook-Ave-94605/home/1670928,Bridge MLS,40846699,N,Y,37.7747556,-122.1742724
MLS Listing,,Multi-Family (2-4 Unit),1324 Peralta St,Oakland,CA,94607,1200000,7,6.0,Oakland,2262,2641,1895,36,531,,Active,,,http://www.redfin.com/CA/Oakland/1324-Peralta-St-94607/home/1913050,Bridge MLS,40846688,N,Y,37.811026,-122.293841
MLS Listing,,Single Family Residential,1029 107Th Ave,Oakland,CA,94603,599000,2,1.0,Stonehurst,1203,10000,1917,36,498,,Active,,,http://www.redfin.com/CA/Oakland/1029-107th-Ave-94603/home/1307875,Bridge MLS,40846686,N,Y,37.7357271,-122.1712568
MLS Listing,,Single Family Residential,,Oakland,CA,94621,350000,2,1.0,,728,2375,1927,36,481,,Active,,,http://www.redfin.com/CA/Oakland/Undisclosed-address-94621/home/1307659,BAREIS,21829751,N,Y,37.755018,-122.191399
MLS Listing,,Single Family Residential,3226 MILLSVIEW,Oakland,CA,94619,588000,4,1.5,Maxwell Park,1129,3520,1924,37,521,,Active,,,http://www.redfin.com/CA/Oakland/3226-Millsview-Ave-94619/home/551053,Bridge MLS,40846679,N,Y,37.7785802,-122.1881521
MLS Listing,,Single Family Residential,10936 Cotter,Oakland,CA,94605,795000,4,2.5,Grass Valley,1773,6800,1957,39,448,,Active,December-30-2018 02:00 PM,December-30-2018 04:30 PM,http://www.redfin.com/CA/Oakland/10936-Cotter-St-94605/home/1547488,Bridge MLS,40846636,N,Y,37.7533468,-122.1217972
MLS Listing,,Multi-Family (2-4 Unit),1006 57Th St,Oakland,CA,94608,775000,2,2.0,Nobe,1396,4000,1908,39,555,,Active,,,http://www.redfin.com/CA/Oakland/1006-57th-St-94608/home/1285788,Bridge MLS,40846617,N,Y,37.8412413,-122.2787201
MLS Listing,,Single Family Residential,344 Peralta St,Oakland,CA,94607,549900,3,1.0,Alameda County,873,4038,1892,39,630,,Active,,,http://www.redfin.com/CA/Oakland/344-Peralta-St-94607/home/1913051,Bridge MLS,40846586,N,Y,37.804334,-122.299233
MLS Listing,,Single Family Residential,6137 Valley View Rd,Oakland,CA,94611-2027,829000,2,1.5,Montclair,1113,11600,1936,39,745,,Active,,,http://www.redfin.com/CA/Oakland/6137-Valley-View-Rd-94611/home/1650144,Bridge MLS,40846582,N,Y,37.8409131,-122.212005
MLS Listing,,Condo/Co-op,,Oakland,CA,94607,1199999,2,2.5,Jack London Sq,1269,,2009,39,946,843,Active,,,http://www.redfin.com/CA/Oakland/Undisclosed-address-94607/home/28696666,Bridge MLS,40846579,N,Y,37.7962472,-122.275671
MLS Listing,,Multi-Family (5+ Unit),2821 Telegraph Ave,OAKLAND,CA,94609,3500000,2,,OAKLAND,7436,6514,1908,40,471,,Active,,,http://www.redfin.com/CA/Oakland/2821-Telegraph-Ave-94609/home/148174827,MLSListings,ML81731736,N,Y,37.8178183,-122.2678479
MLS Listing,,Single Family Residential,5834 Walnut St,Oakland,CA,94605,427000,6,3.0,Millsmont Area,2368,2640,1910,40,180,,Active,,,http://www.redfin.com/CA/Oakland/5834-Walnut-St-94605/home/1761396,Bridge MLS,40846564,N,Y,37.7721658,-122.1905112
MLS Listing,,Single Family Residential,1627 83rd Ave,Oakland,CA,94621,385000,3,1.0,Oakland,798,5000,1919,41,482,,Active,,,http://www.redfin.com/CA/Oakland/1627-83rd-Ave-94621/home/748022,CRMLS,OC18276887,N,Y,37.7563932,-122.176401
MLS Listing,,Single Family Residential,7070 Buckingham Blvd,Berkeley,CA,94705,1175000,4,3.5,Claremont Hills,2487,6509,1993,42,472,,Active,,,http://www.redfin.com/CA/Berkeley/7070-Buckingham-Blvd-94705/home/2037028,Bridge MLS,40846462,N,Y,37.8598993,-122.2220234
MLS Listing,,Vacant Land,Frye St,Oakland,CA,94602,299000,,,Oakland,,19687,,42,,,Active,,,http://www.redfin.com/CA/Oakland/Frye-St-94602/home/22718024,Bridge MLS,40846446,N,Y,37.803601,-122.196585
MLS Listing,,Vacant Land,0 Sheridan Rd,Oakland,CA,94618,289000,,,Rockridge,,5400,,43,,,Active,,,http://www.redfin.com/CA/Oakland/Sheridan-Rd-94618/home/22657139,Bridge MLS,40846423,N,Y,37.83971,-122.224942
MLS Listing,,Single Family Residential,1130 E 11th St,Oakland,CA,94606,560000,3,1.0,New China Town,1405,3750,1895,44,399,,Active,,,http://www.redfin.com/CA/Oakland/1130-E-11th-St-94606/home/1952064,Bridge MLS,40846366,N,Y,37.7897103,-122.2501231
MLS Listing,,Multi-Family (2-4 Unit),,Oakland,CA,94601,699000,,,Oakland,2015,4431,1910,44,347,,Active,,,http://www.redfin.com/CA/Oakland/Undisclosed-address-94601/home/552388,Bridge MLS,40846347,N,Y,37.7781293,-122.212005
MLS Listing,,Single Family Residential,4001 Maybelle Ave,Oakland,CA,94619,899000,4,2.5,Oakland,1517,8960,1946,44,593,,Active,,,http://www.redfin.com/CA/Oakland/4001-Maybelle-Ave-94619/home/547075,San Francisco MLS,478888,N,Y,37.7920237,-122.1912559
MLS Listing,,Single Family Residential,3152 Bona St,Oakland,CA,94601,649000,3,2.0,Oakland,1074,3700,1916,44,604,,Active,,,http://www.redfin.com/CA/Oakland/3152-Bona-St-94601/home/1910666,Bridge MLS,40846284,N,Y,37.791385,-122.2159731
MLS Listing,,Multi-Family (2-4 Unit),1130 E 17Th St,Oakland,CA,94606,622500,4,4.0,Oakland,2040,3500,1974,45,305,,Active,,,http://www.redfin.com/CA/Oakland/1130-E-17th-St-94606/home/532577,Bridge MLS,40846183,N,Y,37.7931203,-122.2454256
MLS Listing,,Condo/Co-op,280 Caldecott Ln #211,Oakland,CA,94618,468000,1,1.0,Alameda County,728,35782,1997,45,643,459,Active,,,http://www.redfin.com/CA/Oakland/280-Caldecott-Ln-94618/unit-211/home/945716,BAREIS,21829375,N,Y,37.8576653,-122.2215047
MLS Listing,,Multi-Family (5+ Unit),2 Whitmore Pl,Oakland,CA,94611,1695000,7,,Oakland,3988,5400,1956,46,425,,Active,,,http://www.redfin.com/CA/Oakland/2-Whitmore-Pl-94611/home/1855205,San Francisco MLS,478833,N,Y,37.8331397,-122.2522059
MLS Listing,,Multi-Family (2-4 Unit),3114 San Pablo,Oakland,CA,94608,649000,,,Emeryville Borde,2711,1740,1910,47,239,,Active,,,http://www.redfin.com/CA/Oakland/3114-San-Pablo-Ave-94608/home/146984808,Bridge MLS,40846020,N,Y,37.8218998,-122.2766316
MLS Listing,,Single Family Residential,1529 25Th Ave,Oakland,CA,94601,528888,2,1.0,Oakland,1176,3630,1908,47,450,,Active,,,http://www.redfin.com/CA/Oakland/1529-25th-Ave-94601/home/1711641,Bridge MLS,40846005,N,Y,37.7835559,-122.2325727
MLS Listing,,Single Family Residential,1968 82Nd Ave,Oakland,CA,94621,429900,2,1.0,Oakland,986,5600,1940,47,436,,Active,,,http://www.redfin.com/CA/Oakland/1968-82nd-Ave-94621/home/551520,Bridge MLS,40845984,N,Y,37.7589007,-122.1724541
MLS Listing,,Multi-Family (2-4 Unit),1124 58th,Oakland,CA,94621,445000,,,Oakland,1200,3500,1924,48,371,,Active,,,http://www.redfin.com/CA/Oakland/1124-58th-Ave-94621/home/1289998,Bridge MLS,40845921,N,Y,37.7622422,-122.2046568
MLS Listing,,Single Family Residential,2000 90Th Ave,Oakland,CA,94603,535890,3,1.0,East Oakland,1408,6000,1912,48,381,,Active,,,http://www.redfin.com/CA/Oakland/2000-90th-Ave-94603/home/1422842,Bridge MLS,40845912,N,Y,37.7524549,-122.1675314
MLS Listing,,Vacant Land,Overmoor St,Oakland,CA,94603,1200000,,,Oakland,,164562,,48,,,Active,,,http://www.redfin.com/CA/Oakland/Overmoor-St-94605/home/22722723,Bridge MLS,40845892,N,Y,37.748377,-122.135055
MLS Listing,,Townhouse,1476 Adeline St,Oakland,CA,94607,619000,3,2.5,West Oakland,1300,1545,1996,51,476,145,Active,,,http://www.redfin.com/CA/Oakland/1476-Adeline-St-94607/home/525243,Bridge MLS,40845734,N,Y,37.8100049,-122.28572
MLS Listing,,Single Family Residential,10923 Foothill,Oakland,CA,94605-5203,575000,3,2.0,E Oakland,1101,5712,1923,51,522,,Active,,,http://www.redfin.com/CA/Oakland/10923-Foothill-Blvd-94605/home/1987291,Bridge MLS,40845699,N,Y,37.7424316,-122.1467738
MLS Listing,,Single Family Residential,8309 Iris St,Oakland,CA,94605,459000,3,2.0,Oakland,1384,4585,1926,51,332,,Active,,,http://www.redfin.com/CA/Oakland/8309-Iris-St-94605/home/1323719,Bridge MLS,40845653,N,Y,37.7609064,-122.1661122
MLS Listing,,Single Family Residential,3251 Linden St,Oakland,CA,94608,485000,2,1.0,West Oakland,1061,4760,1904,51,457,,Active,,,http://www.redfin.com/CA/Oakland/3251-Linden-St-94608/home/525141,Bridge MLS,40845652,N,Y,37.8243051,-122.2786585
MLS Listing,,Single Family Residential,2417 Palmetto St,Oakland,CA,94602,699900,3,1.5,Diamond District,1724,6850,1912,51,406,,Active,,,http://www.redfin.com/CA/Oakland/2417-Palmetto-St-94602/home/540965,Bridge MLS,40845629,N,Y,37.7988307,-122.2146094
MLS Listing,,Single Family Residential,2731 Chelsea Dr,Oakland,CA,94611,1899000,4,2.5,Piedmont Pines,3128,19278,1958,51,607,,Active,,,http://www.redfin.com/CA/Oakland/2731-Chelsea-Dr-94611/home/1496931,Bridge MLS,40845614,N,Y,37.8250291,-122.1927635
MLS Listing,,Condo/Co-op,10871 Packard St #161,Oakland,CA,94603,475000,2,2.0,Oakland,932,,2002,51,510,333,Active,,,http://www.redfin.com/CA/Oakland/10871-Packard-St-94603/unit-161/home/803972,Bridge MLS,40845610,N,Y,37.737847,-122.1620978
MLS Listing,,Single Family Residential,2808 Madera Ave,OAKLAND,CA,94619,888000,3,2.0,OAKLAND,1360,5040,1921,51,653,,Active,,,http://www.redfin.com/CA/Oakland/2808-Madera-Ave-94619/home/560258,MLSListings,ML81730713,N,Y,37.7772944,-122.1939606
MLS Listing,,Single Family Residential,0 Westover,Oakland,CA,94603,1695000,5,4.0,Oakland,4000,6600,2018,52,424,,Active,,,http://www.redfin.com/CA/Oakland/Westover-Dr-94611/home/22725504,Bridge MLS,40845540,N,Y,37.83093,-122.194324
MLS Listing,,Single Family Residential,2701 Maxwell Ave,Oakland,CA,94619,778000,2,1.0,Maxwell  Park,1200,4173,1925,52,648,,Active,,,http://www.redfin.com/CA/Oakland/2701-Maxwell-Ave-94619/home/786740,Bridge MLS,40845510,N,Y,37.778189,-122.1975077
MLS Listing,,Single Family Residential,1012 Linden St,Oakland,CA,94607,749000,5,2.0,West Oakland,1545,,1973,52,485,,Active,,,http://www.redfin.com/CA/Oakland/1012-Linden-St-94607/home/1112978,Bridge MLS,40845491,N,Y,37.806499,-122.284639
MLS Listing,,Multi-Family (2-4 Unit),2368 High St,Oakland,CA,94601,849000,,,Maxwell,3642,3547,1940,52,233,,Active,,,http://www.redfin.com/CA/Oakland/2368-High-St-94601/home/143505200,Bridge MLS,40845490,N,Y,37.7805188,-122.2057984
MLS Listing,,Vacant Land,Monan St,Oakland,CA,94605,299000,,,Oakland,,44580,,52,,,Active,,,http://www.redfin.com/CA/Oakland/Monan-St-94605/home/1483686,Bridge MLS,40845467,N,Y,37.753263,-122.127769
MLS Listing,,Multi-Family (2-4 Unit),701 32nd St,Oakland,CA,94609,649000,3,3.0,Oakland,1776,3500,1962,52,365,,Active,,,http://www.redfin.com/CA/Oakland/701-32nd-St-94609/home/2016905,Bridge MLS,40845460,N,Y,37.8214229,-122.2720127
MLS Listing,,Condo/Co-op,365 Somerset Rd,Oakland,CA,94611,499000,2,1.0,Lower Montclair,800,,1963,52,624,250,Active,,,http://www.redfin.com/CA/Piedmont/365-Somerset-Rd-94611/home/12116999,Bridge MLS,40845428,N,Y,37.820061,-122.20887
MLS Listing,,Single Family Residential,891 61st St,Oakland,CA,94608,999999,3,1.5,N Oakland,1385,4455,1906,53,722,,Active,December-30-2018 02:30 PM,December-30-2018 04:30 PM,http://www.redfin.com/CA/Oakland/891-61st-St-94608/home/530667,Bridge MLS,40845386,N,Y,37.8453656,-122.274804
MLS Listing,,Single Family Residential,5710 Harbord Dr,Oakland,CA,94611,2200000,4,4.0,Oakland,4202,12470,1948,53,524,,Active,December-30-2018 01:00 PM,December-30-2018 04:00 PM,http://www.redfin.com/CA/Oakland/5710-Harbord-Dr-94611/home/1118894,Bridge MLS,40845350,N,Y,37.8322355,-122.2208487
MLS Listing,,Multi-Family (2-4 Unit),2349 Waverly St,Oakland,CA,94612,995000,,,Oakland,1174,3000,1899,54,848,,Active,,,http://www.redfin.com/CA/Oakland/2349-Waverly-St-94612/home/962017,Bridge MLS,40845212,N,Y,37.8126251,-122.2631511
MLS Listing,,Single Family Residential,12 Cary Ct,Oakland,CA,94603,485000,2,1.0,Brookfield Villg,825,4056,1943,54,588,,Active,,,http://www.redfin.com/CA/Oakland/12-Cary-Ct-94603/home/2036769,Bridge MLS,40845210,N,Y,37.7354353,-122.1833631
MLS Listing,,Single Family Residential,1327 93rd,Oakland,CA,94603,488000,3,1.5,Oakland,1800,4176,1922,54,271,,Active,,,http://www.redfin.com/CA/Oakland/1327-93rd-Ave-94603/home/1872192,Bridge MLS,40845160,N,Y,37.7474658,-122.1743611
MLS Listing,,Single Family Residential,8118 Sunkist Dr,Oakland,CA,94605,768888,3,2.5,King Estates,1649,5520,1951,54,466,,Active,,,http://www.redfin.com/CA/Oakland/8118-Sunkist-Dr-94605/home/1118341,Bridge MLS,40845155,N,Y,37.7661411,-122.1583507
MLS Listing,,Single Family Residential,2033 Myrtle St,Oakland,CA,94607,599000,2,2.0,Oakland,1137,3964,1907,55,527,,Active,,,http://www.redfin.com/CA/Oakland/2033-Myrtle-St-94607/home/1321510,San Francisco MLS,478519,N,Y,37.81353,-122.280421
MLS Listing,,Vacant Land,2020 Mastlands Dr,Oakland,CA,94603,219000,,,Piedmont Pines,,13103,,55,,,Active,,,http://www.redfin.com/CA/Oakland/2020-Mastlands-Dr-94611/home/101620467,Bridge MLS,40845065,N,Y,37.817654,-122.1983461
MLS Listing,,Single Family Residential,1252 Collier Dr,San Leandro,CA,94577,679975,2,1.0,San Leandro,1020,3750,1941,57,667,,Active,December-30-2018 01:00 PM,December-30-2018 04:00 PM,http://www.redfin.com/CA/San-Leandro/1252-Collier-Dr-94577/home/1035734,Bridge MLS,40845005,N,Y,37.7299789,-122.1394988
MLS Listing,,Single Family Residential,3301 Martin Luther King Jr Way,Oakland,CA,94609,875000,4,1.5,Elmwood,2027,4510,1912,57,432,,Active,,,http://www.redfin.com/CA/Oakland/3301-Martin-Luther-King-Jr-Way-94609/home/525743,Bridge MLS,40844983,N,Y,37.8229027,-122.270462
MLS Listing,,Condo/Co-op,3145 West St,Oakland,CA,94608,549000,1,1.5,West Oakland,1184,4600,1910,57,464,250,Active,,,http://www.redfin.com/CA/Oakland/3145-West-St-94608/home/148015866,Bridge MLS,40844970,N,Y,37.821847,-122.273443
MLS Listing,,Single Family Residential,8740 Golf Links Rd,Oakland,CA,94605,899000,5,4.0,Oak Knoll Area,3194,14000,2014,58,281,,Active,,,http://www.redfin.com/CA/Oakland/8740-Golf-Links-Rd-94605/home/22706028,Bridge MLS,40844937,N,Y,37.7591208,-122.1550685
MLS Listing,,Single Family Residential,5815 avenal Ave,Oakland,CA,94605,489000,2,1.5,Oakland,1333,5120,1917,58,367,,Active,,,http://www.redfin.com/CA/Oakland/5815-Avenal-Ave-94605/home/1871970,San Francisco MLS,478448,N,Y,37.770615,-122.193099
MLS Listing,,Condo/Co-op,320 Lee St #702,Oakland,CA,94610,652500,2,2.0,Adams Point,1003,,1965,58,651,605,Active,,,http://www.redfin.com/CA/Oakland/320-Lee-St-94610/unit-702/home/148009809,Bridge MLS,40844890,N,Y,37.8110831,-122.2559505
MLS Listing,,Single Family Residential,10652 Acalanes Dr,Oakland,CA,94603,450000,3,1.0,E Oakland,1000,4500,1944,58,450,,Active,,,http://www.redfin.com/CA/Oakland/10652-Acalanes-Dr-94603/home/1716869,Bridge MLS,40844863,N,Y,37.7318451,-122.1770219
MLS Listing,,Single Family Residential,6301 Longcroft Dr,Oakland,CA,94611,978000,4,3.0,Piedmont Pines,2203,7398,1956,58,444,,Active,,,http://www.redfin.com/CA/Oakland/6301-Longcroft-Dr-94611/home/615528,Bridge MLS,40844848,N,Y,37.8218495,-122.194271
MLS Listing,,Townhouse,6311 Rocky Point Ct,Oakland,CA,94605-3133,849000,4,2.5,Alameda County,2415,2415,2012,58,352,263,Active,December-30-2018 12:00 PM,December-30-2018 03:00 PM,http://www.redfin.com/CA/Oakland/6311-Rocky-Point-Ct-94605/home/22677382,Bridge MLS,40844824,N,Y,37.7776461,-122.1622093
MLS Listing,,Single Family Residential,21 Murdock Ct,Oakland,CA,94605,649900,3,2.0,Millsmont Area,1455,8385,1926,58,447,,Active,,,http://www.redfin.com/CA/Oakland/21-Murdock-Ct-94605/home/1727872,Bridge MLS,40844790,N,Y,37.7756412,-122.1843387
MLS Listing,,Single Family Residential,1744 Seminary Ave,Oakland,CA,94621,365000,2,1.0,Oakland,918,2850,1923,59,398,,Active,,,http://www.redfin.com/CA/Oakland/1744-Seminary-Ave-94621/home/569875,Bridge MLS,40844760,N,Y,37.7670538,-122.1964879
MLS Listing,,Single Family Residential,136 Farrelly Dr,San Leandro,CA,94577,649000,3,1.5,Farrelly Pond,1473,5800,1940,59,441,,Active,,,http://www.redfin.com/CA/San-Leandro/136-Farrelly-Dr-94577/home/1973337,Bridge MLS,40844742,N,Y,37.7352659,-122.16456
MLS Listing,,Single Family Residential,1085 66Th St,Oakland,CA,94608,648000,2,2.0,Emeryville Bordr,744,3300,1908,59,871,,Active,,,http://www.redfin.com/CA/Oakland/1085-66th-St-94608/home/1362223,Bridge MLS,40844738,N,Y,37.8489138,-122.2843735
MLS Listing,,Vacant Land,0 Skyline Blvd,Oakland,CA,94611,300000,,,Oakland,,8692,,59,,,Active,,,http://www.redfin.com/CA/Piedmont/Skyline-Blvd-94611/home/22679169,Bridge MLS,40844727,N,Y,37.823973,-122.187307
MLS Listing,,Vacant Land,Delmont,Oakland,CA,94605,180000,,,Chimes Terrace,,4668,,59,,,Active,,,http://www.redfin.com/CA/Oakland/Delmont-Ave-94605/home/22726740,Bridge MLS,40844715,N,Y,37.777361,-122.175877
MLS Listing,,Single Family Residential,1351 92Nd Ave,Oakland,CA,94603,395000,2,1.0,Elmhurst,1006,5500,1920,59,393,,Active,,,http://www.redfin.com/CA/Oakland/1351-92nd-Ave-94603/home/1458734,Bridge MLS,40844691,N,Y,37.7483363,-122.1744256
MLS Listing,,Condo/Co-op,320 Caldecott Ln #310,Oakland,CA,94618,630000,2,2.0,Parkwoods,1239,,1998,59,508,551,Active,,,http://www.redfin.com/CA/Oakland/320-Caldecott-Ln-94618/unit-310/home/1278586,Bridge MLS,40844665,N,Y,37.855316,-122.2208358
MLS Listing,,Single Family Residential,2573 Truman Ave,Oakland,CA,94605,550000,2,1.5,Alameda County,905,3285,1930,59,608,,Active,,,http://www.redfin.com/CA/Oakland/2573-Truman-Ave-94605/home/1458962,Bridge MLS,40844660,N,Y,37.7461238,-122.154137
MLS Listing,,Single Family Residential,2726 60Th Ave,Oakland,CA,94605,639000,3,2.0,Seminary,1878,4400,1922,59,340,,Active,,,http://www.redfin.com/CA/Oakland/2726-60th-Ave-94605/home/1363222,Bridge MLS,40844612,N,Y,37.7720382,-122.1878417
MLS Listing,,Condo/Co-op,200 2ND St #105,Oakland,CA,94607,549000,1,1.0,Jack London,589,19985,2006,59,932,377,Active,,,http://www.redfin.com/CA/Oakland/200-2nd-St-94607/unit-105/home/12118297,Bridge MLS,40844605,N,Y,37.7941175,-122.2706923
MLS Listing,,Vacant Land,6609 Simson St,Oakland,CA,94605,199999,,,Oakland,,12903,,60,,,Active,,,http://www.redfin.com/CA/Oakland/6609-Simson-St-94605/home/22805259,Bridge MLS,40844589,N,Y,37.7750243,-122.1735526
MLS Listing,,Single Family Residential,7207 LOCKWOOD St,Oakland,CA,94621,499999,2,2.0,East Oakland,816,4880,1907,60,613,,Active,January-5-2019 01:00 PM,January-5-2019 04:00 PM,http://www.redfin.com/CA/Oakland/7207-Lockwood-St-94621/home/572302,Bridge MLS,40844585,N,Y,37.7635705,-122.1818554
MLS Listing,,Single Family Residential,5546 E 16Th St,Oakland,CA,94621,625000,3,2.0,Melrose,1198,3100,1914,60,522,,Active,,,http://www.redfin.com/CA/Oakland/5546-E-16th-St-94621/home/1888900,Bridge MLS,40844570,N,Y,37.7681471,-122.2005217
MLS Listing,,Multi-Family (2-4 Unit),667 35th St,Oakland,CA,94609-2908,1150000,8,4.5,Oakland,2824,6000,1898,60,407,,Active,,,http://www.redfin.com/CA/Oakland/667-35th-St-94609/home/1871005,Bridge MLS,40844534,N,Y,37.8242271,-122.2706518
MLS Listing,,Single Family Residential,1250 Haskell St,Berkeley,CA,94702,750000,2,1.0,Berkeley,811,3500,1923,60,925,,Active,,,http://www.redfin.com/CA/Berkeley/1250-Haskell-St-94702/home/1163300,Bridge MLS,40844490,N,Y,37.8508293,-122.283709
MLS Listing,,Multi-Family (2-4 Unit),8920 International Blvd,Oakland,CA,94621,449000,4,2.0,Oakland,1920,4000,1900,61,234,,Active,,,http://www.redfin.com/CA/Oakland/8920-International-Blvd-94621/home/147918263,Bridge MLS,40844364,N,Y,37.7499785,-122.1743167
MLS Listing,,Multi-Family (2-4 Unit),3341 72Nd Ave,Oakland,CA,94605,499000,2,2.0,Oakland,1416,6191,1939,62,352,,Active,,,http://www.redfin.com/CA/Oakland/3341-72nd-Ave-94605/home/1533058,Bridge MLS,40844275,N,Y,37.7703769,-122.1723655
MLS Listing,,Vacant Land,0 Sayre Dr,Oakland,CA,94611,249000,,,Oakland,,9469,,62,,,Active,,,http://www.redfin.com/CA/Oakland/Sayre-Dr-94611/home/22690234,Bridge MLS,40844254,N,Y,37.835319,-122.193722
MLS Listing,,Multi-Family (2-4 Unit),10605 Royal Ann St,Oakland,CA,94603,569000,,,Oakland,1346,5030,1943,62,423,,Active,,,http://www.redfin.com/CA/Oakland/10605-Royal-Ann-St-94603/home/1197038,Bridge MLS,40844238,N,Y,37.736527,-122.1703144
MLS Listing,,Single Family Residential,840 7Th Ave,Oakland,CA,94606,779000,3,2.0,Oakland,1807,2250,1910,63,431,,Active,,,http://www.redfin.com/CA/Oakland/840-7th-Ave-94606/home/536280,Bridge MLS,40844217,N,Y,37.7918646,-122.2551722
MLS Listing,,Multi-Family (2-4 Unit),973 26Th St,Oakland,CA,94607,750000,6,4.0,West Oak,2000,4280,1985,64,375,,Active,,,http://www.redfin.com/CA/Oakland/973-26th-St-94607/home/1890612,Bridge MLS,40844181,N,Y,37.8177004,-122.2791901
MLS Listing,,Single Family Residential,338 Burlwood Ave,Oakland,CA,94603,579000,5,2.0,Brookfield,1660,4056,1942,64,349,,Active,,,http://www.redfin.com/CA/Oakland/338-Burlwood-Ave-94603/home/591417,Bridge MLS,40844159,N,Y,37.7339315,-122.1874426
MLS Listing,,Condo/Co-op,172 6th St Unit A,Oakland,CA,94607,629000,1,1.0,Downtown,563,,2018,65,1117,,Active,,,http://www.redfin.com/CA/Oakland/172-6th-St-94607/unit-A/home/147862701,Bridge MLS,40844082,N,Y,37.7962438,-122.2680093
MLS Listing,,Condo/Co-op,172 6th St Unit B,Oakland,CA,94607,798000,2,2.5,Downtown,1361,,2018,65,586,,Active,,,http://www.redfin.com/CA/Oakland/172-6th-St-94607/unit-B/home/147862441,Bridge MLS,40844070,N,Y,37.7962438,-122.2680093
MLS Listing,,Condo/Co-op,172 6th St Unit C,Oakland,CA,94607,798000,2,2.5,Downtown,1380,,2018,65,578,,Active,,,http://www.redfin.com/CA/Oakland/172-6th-St-94607/unit-C/home/147862128,Bridge MLS,40844063,N,Y,37.7962438,-122.2680093
MLS Listing,,Single Family Residential,3000 56th,Oakland,CA,94605,819000,4,2.0,Mills Gardens,2302,2302,1925,65,356,,Active,,,http://www.redfin.com/CA/Oakland/3000-56th-Ave-94605/home/568107,Bridge MLS,40844060,N,Y,37.7765469,-122.1884625
MLS Listing,,Single Family Residential,163 Perry Pl,Oakland,CA,94610,1149000,4,2.0,Adams Point,2831,4000,1928,65,406,,Active,December-30-2018 02:00 PM,December-30-2018 04:00 PM,http://www.redfin.com/CA/Oakland/163-Perry-Pl-94610/home/912408,Bridge MLS,40844037,N,Y,37.818272,-122.2538961
MLS Listing,,Multi-Family (2-4 Unit),822 60th St,Oakland,CA,94608,1250000,5,3.0,Oakland,2634,5400,1910,66,475,,Active,,,http://www.redfin.com/CA/Oakland/822-60th-St-94608/home/1855350,Bridge MLS,40843918,N,Y,37.8452248,-122.271614
MLS Listing,,Single Family Residential,6334 Camden St,Oakland,CA,94605,649950,3,2.0,Camden,1395,4800,1923,66,466,,Active,,,http://www.redfin.com/CA/Oakland/6334-Camden-St-94605/home/563658,Bridge MLS,40843916,N,Y,37.7726422,-122.1819441
MLS Listing,,Single Family Residential,9430 Bancroft Ave,Oakland,CA,94603,429000,3,1.0,Oakland,935,4485,1956,66,459,,Active,,,http://www.redfin.com/CA/Oakland/9430-Bancroft-Ave-94603/home/1547388,Bridge MLS,40843915,N,Y,37.7508074,-122.1631407
MLS Listing,,Multi-Family (2-4 Unit),1854 Church St,Oakland,CA,94621,800000,5,2.0,Oakland,3100,4130,1920,66,258,,Active,,,http://www.redfin.com/CA/Oakland/1854-Church-St-94621/home/147843186,Bridge MLS,40843904,N,Y,37.7640578,-122.1856919
MLS Listing,,Multi-Family (2-4 Unit),3411 Adeline St,Berkeley,CA,94703,1200000,6,4.0,Berkeley,3696,6203,1940,66,325,,Active,,,http://www.redfin.com/CA/Berkeley/3411-Adeline-St-94703/home/647584,Bridge MLS,40843858,N,Y,37.846421,-122.272032
MLS Listing,,Vacant Land,2311 SAN PABLO Ave,Oakland,CA,94612-1136,1600000,,,Oakland,,8000,,66,,,Active,,,http://www.redfin.com/CA/Oakland/2311-San-Pablo-Ave-94612/home/49876931,Bridge MLS,40843850,N,Y,37.813613,-122.2746363
MLS Listing,,Condo/Co-op,330 Park View Ter #103,OAKLAND,CA,94610,699000,2,2.0,OAKLAND,1185,20000,1985,66,590,483,Active,December-30-2018 01:00 PM,December-30-2018 04:00 PM,http://www.redfin.com/CA/Oakland/330-Park-View-Ter-94610/unit-103/home/526225,MLSListings,ML81728942,N,Y,37.8102652,-122.2588157
MLS Listing,,Single Family Residential,7305 Hillmont Dr,Oakland,CA,94605,799950,3,2.0,Eastmont Hills,1550,4440,1952,66,516,,Active,December-30-2018 01:30 PM,December-30-2018 04:00 PM,http://www.redfin.com/CA/Oakland/7305-Hillmont-Dr-94605/home/1995349,Bridge MLS,40843829,N,Y,37.7720135,-122.1689506
MLS Listing,,Townhouse,1520 Adeline St,Oakland,CA,94607,629000,3,2.5,Oakland West,1300,1442,1996,67,484,145,Active,,,http://www.redfin.com/CA/Oakland/1520-Adeline-St-94607/home/525244,Bridge MLS,40843706,N,Y,37.8106364,-122.285481
MLS Listing,,Vacant Land,0 Playa dominicalito,Outside Area (Outside Ca),CA,,12000000,,,Outside Area (Outside Ca),,7644780,,68,,,Active,,,http://www.redfin.com/CA/Outside-Area-Outside-Ca/0-Playa-dominicalito-Unknown/home/147801918,CRISNet,SR18248030,N,Y,37.8044018,-122.27067
MLS Listing,,Single Family Residential,2000 24th Ave,Oakland,CA,94601,950000,5,1.5,Foothill,2592,3990,1922,69,367,,Active,December-30-2018 02:00 PM,December-30-2018 04:00 PM,http://www.redfin.com/CA/Oakland/2000-24th-Ave-94601/home/533181,Bridge MLS,40843507,N,Y,37.7866616,-122.2300906
MLS Listing,,Single Family Residential,908 Everett Ave,Oakland,CA,94602,1200000,4,2.0,Glenview,2107,6286,1953,72,570,,Active,,,http://www.redfin.com/CA/Oakland/908-Everett-Ave-94602/home/1891399,Bridge MLS,40843281,N,Y,37.8096733,-122.2228213
MLS Listing,,Multi-Family (2-4 Unit),4226 Oakmore Rd,Oakland,CA,94602,1375000,4,3.0,Oakland,3698,3698,1938,72,372,,Active,,,http://www.redfin.com/CA/Oakland/4226-Oakmore-Rd-94602/home/1398716,Bridge MLS,40843277,N,Y,37.8109424,-122.2123153
MLS Listing,,Multi-Family (2-4 Unit),2950 Telegraph Ave,Oakland,CA,94609,995000,4,3.0,Oakland,2984,3122,,72,333,,Active,,,http://www.redfin.com/CA/Oakland/2950-Telegraph-Ave-94609/home/145085969,Bridge MLS,40843238,N,Y,37.8189924,-122.2668398
MLS Listing,,Single Family Residential,3550 Seminary Ave,Oakland,CA,94605,649000,3,1.0,Alameda County,1324,4940,1940,73,490,,Active,,,http://www.redfin.com/CA/Oakland/3550-Seminary-Ave-94605/home/563096,BAREIS,21827197,N,Y,37.7791083,-122.1807912
MLS Listing,,Multi-Family (2-4 Unit),2022 E 23rd St,Oakland,CA,94606,625000,4,2.0,Alameda County,1690,5388,1900,74,370,,Active,,,http://www.redfin.com/CA/Oakland/2022-E-23rd-St-94606/home/1888386,BAREIS,21827146,N,Y,37.7924323,-122.2332819
MLS Listing,,Multi-Family (2-4 Unit),2019 E 20th,Oakland,CA,94606-4285,1280000,8,5.0,San Antonio Park,3224,3500,1905,74,397,,Active,,,http://www.redfin.com/CA/Oakland/2019-E-20th-St-94606/unit-C/home/1842844,Bridge MLS,40842711,N,Y,37.7895876,-122.2357639
MLS Listing,,Single Family Residential,9637 E St,Oakland,CA,94603,389000,3,1.0,Oakland,1097,5600,1945,74,355,,Active,,,http://www.redfin.com/CA/Oakland/9637-E-St-94603/home/587156,Bridge MLS,40842882,N,Y,37.7424782,-122.1775097
MLS Listing,,Single Family Residential,7601 Rudsdale St,Oakland,CA,94621,515000,3,2.0,East Oakland,1200,4650,1942,75,429,,Active,,,http://www.redfin.com/CA/Oakland/7601-Rudsdale-St-94621/home/581070,Bridge MLS,40842705,N,Y,37.75619,-122.187379
MLS Listing,,Vacant Land,7043 Balsam Way,Oakland,CA,94603,89000,,,Montclair,,10188,,75,,,Active,,,http://www.redfin.com/CA/Oakland/7043-Balsam-Way-94611/home/18891629,Bridge MLS,40842676,N,Y,37.8490358,-122.2089759
MLS Listing,,Multi-Family (2-4 Unit),1084 30th St,Oakland,CA,94608,849000,7,4.0,West Oakland,3200,3900,1895,76,265,,Active,,,http://www.redfin.com/CA/Oakland/1084-30th-St-94608/home/1617620,Bridge MLS,40842637,N,Y,37.8219247,-122.2803338
MLS Listing,,Single Family Residential,9429 D St,Oakland,CA,94603,544900,3,2.0,Alameda,1184,5000,1936,76,460,,Active,,,http://www.redfin.com/CA/Oakland/9429-D-St-94603/home/588645,Bridge MLS,40842629,N,Y,37.7441909,-122.1776427
MLS Listing,,Single Family Residential,,Oakland,CA,94606,519999,3,1.0,San Antonio Park,1005,2520,1908,76,517,,Active,,,http://www.redfin.com/CA/Oakland/Undisclosed-address-94606/home/532759,Bridge MLS,40842584,N,Y,37.7889486,-122.2394426
MLS Listing,,Vacant Land,Thorndale Dr,Oakland,CA,94611,350000,,,Oakland,,1920,,77,,,Active,,,http://www.redfin.com/CA/Oakland/Thorndale-Dr-94611/home/22647846,Bridge MLS,40842513,N,Y,37.84595,-122.205122
MLS Listing,,Condo/Co-op,6729 Skyview Dr,Oakland,CA,94605,1525065,4,3.5,Oakland,3161,,2018,78,482,425,Active,December-30-2018 10:00 AM,December-30-2018 05:00 PM,http://www.redfin.com/CA/Oakland/6729-Skyview-Dr-94605/home/147597199,Bridge MLS,40842442,N,Y,37.7782804,-122.1608847
MLS Listing,,Condo/Co-op,6727 Skyview Dr,Oakland,CA,94605,1150000,4,2.5,Leona Heights,2903,,2018,78,396,425,Active,December-30-2018 10:00 AM,December-30-2018 05:00 PM,http://www.redfin.com/CA/Oakland/6727-Skyview-Dr-94605/home/147597180,Bridge MLS,40842439,N,Y,37.7782804,-122.1608847
MLS Listing,,Multi-Family (2-4 Unit),2000 E 22nd St,Oakland,CA,94606-4119,699000,4,3.0,Oakland,1635,3500,1895,79,428,,Active,,,http://www.redfin.com/CA/Oakland/2000-E-22nd-St-94606/home/1543050,Bridge MLS,40842425,N,Y,37.7917619,-122.234257
MLS Listing,,Vacant Land,3589 Coolidge Ave,Oakland,CA,94602,650000,,,Oakland,,7197,,79,,,Active,,,http://www.redfin.com/CA/Oakland/3589-Coolidge-Ave-94602/home/22811606,Bridge MLS,40842390,N,Y,37.7992645,-122.2081148
MLS Listing,,Single Family Residential,637 Alamanza Dr,Oakland,CA,94603,415000,3,2.0,Alameda County,1204,,1945,79,345,,Active,,,http://www.redfin.com/CA/Oakland/637-Almanza-Dr-94603/home/1341604,BAREIS,21826750,N,Y,37.7307684,-122.1783522
MLS Listing,,Vacant Land,0 Gypsy Ln,Berkeley,CA,94705,495000,,,Berkeley,,29097,,79,,,Active,,,http://www.redfin.com/CA/Oakland/Gypsy-Ln-94705/home/50263640,Bridge MLS,40842340,N,Y,37.865952,-122.230533
MLS Listing,,Vacant Land,2521 Grande Vista Ave,Oakland,CA,94601,80000,,,Meadowbrook,,2000,,79,,,Active,,,http://www.redfin.com/CA/Oakland/2521-Grande-Vista-Ave-94601/home/143116426,Bridge MLS,40842314,N,Y,37.7913304,-122.2272119
MLS Listing,,Single Family Residential,1564 Bridge Ave,Oakland,CA,94601,439000,2,2.0,Fruitvale,904,3200,1912,79,486,,Active,,,http://www.redfin.com/CA/Oakland/1564-Bridge-Ave-94601/home/528611,Bridge MLS,40842254,N,Y,37.77787,-122.2194524
MLS Listing,,Vacant Land,Revere Ave,Oakland,CA,94603,99000,,,Oakland,,5349,,80,,,Active,,,http://www.redfin.com/CA/Oakland/Revere-Ave-94605/home/22670957,Bridge MLS,40842205,N,Y,37.735243,-122.132527
MLS Listing,,Multi-Family (2-4 Unit),515 Sycamore St,Oakland,CA,94612,1195000,6,4.0,Oakland,3165,3999,1901,80,378,,Active,,,http://www.redfin.com/CA/Oakland/515-Sycamore-St-94612/home/525514,Bridge MLS,40842106,N,Y,37.8149877,-122.2688226
MLS Listing,,Condo/Co-op,730 29th St #109,Oakland,CA,94609,425000,1,1.0,West Oakland,651,,1931,80,653,312,Active,,,http://www.redfin.com/CA/Oakland/730-29th-St-94609/unit-109/home/22963734,Bridge MLS,40842098,N,Y,37.8194563,-122.2727525
MLS Listing,,Single Family Residential,4901 Lawton Ave,Oakland,CA,94609,1799000,3,3.0,Temescal,2424,2582,2003,81,742,,Active,,,http://www.redfin.com/CA/Oakland/4901-Lawton-Ave-94609/home/124624467,Bridge MLS,40842033,N,Y,37.8352033,-122.2571408
MLS Listing,,Single Family Residential,4705 Fairfax Ave,OAKLAND,CA,94601,549000,3,1.0,OAKLAND,783,5000,1911,81,701,,Active,,,http://www.redfin.com/CA/Oakland/4705-Fairfax-Ave-94601/home/1910824,MLSListings,ML81727053,N,Y,37.7793335,-122.2045127
MLS Listing,,Condo/Co-op,2112 West St #1,Oakland,CA,94612,675000,1,1.5,West Oakland,1774,,1956,81,380,300,Active,,,http://www.redfin.com/CA/Oakland/2112-West-St-94612/unit-1/home/147528296,Bridge MLS,40841955,N,Y,37.8123284,-122.2761775
MLS Listing,,Multi-Family (2-4 Unit),5756 Market St,Oakland,CA,94608,799000,4,3.0,Oakland,2469,2160,1959,81,324,,Active,,,http://www.redfin.com/CA/Oakland/5756-Market-St-94608/home/12115874,Bridge MLS,40841953,N,Y,37.8425628,-122.2743726
MLS Listing,,Multi-Family (2-4 Unit),1150-1152 87th Ave,OAKLAND,CA,94621,699000,5,,OAKLAND,1736,5400,1922,82,403,,Active,,,http://www.redfin.com/CA/Oakland/1150-87th-Ave-94621/home/1041507,MLSListings,ML81726930,N,Y,37.749833,-122.1798156
MLS Listing,,Condo/Co-op,2112 West St #4,Oakland,CA,94612,675000,1,1.0,West Oakland,1800,,1956,82,375,300,Active,,,http://www.redfin.com/CA/Oakland/2112-West-St-94612/unit-4/home/147495879,Bridge MLS,40841756,N,Y,37.8123284,-122.2761775
MLS Listing,,Vacant Land,Oak Hill Rd,Oakland,CA,94603,175000,,,Oakland,,9878,,83,,,Active,,,http://www.redfin.com/CA/Oakland/Oak-Hill-Rd-94605/home/22679204,Bridge MLS,40841707,N,Y,37.761282,-122.143051
MLS Listing,,Vacant Land,2814 Kitchener Ct,Oakland,CA,94602,159000,,,Upper Fruitvale,,7097,,83,,,Active,,,http://www.redfin.com/CA/Oakland/2814-Kitchener-Ct-94602/home/22689894,Bridge MLS,40841704,N,Y,37.806413,-122.197701
MLS Listing,,Single Family Residential,2011 82nd Ave,Oakland,CA,95461,490000,3,1.5,Alameda County,1850,4600,1945,83,265,,Active,,,http://www.redfin.com/CA/Oakland/2011-82nd-Ave-94621/home/1881977,BAREIS,21826331,N,Y,37.7594833,-122.1720107
MLS Listing,,Single Family Residential,2016 23Rd Ave,Oakland,CA,94606,559000,3,2.5,San Antonio,1594,4393,1900,87,351,,Active,,,http://www.redfin.com/CA/Oakland/2016-23rd-Ave-94606/home/771919,Bridge MLS,40841351,N,Y,37.787842,-122.231707
MLS Listing,,Vacant Land,8156 Skyline Blvd,Oakland,CA,94611,129000,,,Oakland,,8378,,87,,,Active,,,http://www.redfin.com/CA/Oakland/8156-Skyline-Blvd-94611/home/148428712,Bridge MLS,40841346,N,Y,37.836777,-122.1857642
MLS Listing,,Vacant Land,1145 72Nd Ave,Oakland,CA,94621,199950,,,Oakland,,2500,,87,,,Active,,,http://www.redfin.com/CA/Oakland/1145-72nd-Ave-94621/home/581561,Bridge MLS,40841305,N,Y,37.7581435,-122.1905145
MLS Listing,,Single Family Residential,9112 D St,Oakland,CA,94603,568888,5,3.0,Oakland,2626,5750,1920,87,217,,Active,,,http://www.redfin.com/CA/Oakland/9112-D-St-94603/home/1831835,Bridge MLS,40841206,N,Y,37.7467152,-122.1786626
MLS Listing,,Multi-Family (2-4 Unit),474 Clifton St,Oakland,CA,94618,2100000,9,5.0,Rockridge,3260,5629,1967,88,644,,Active,,,http://www.redfin.com/CA/Oakland/474-Clifton-St-94618/home/1570738,Bridge MLS,40841162,N,Y,37.8408532,-122.2577894
MLS Listing,,Single Family Residential,3113 Linden St,Oakland,CA,94608,995000,3,2.0,West Oakland,982,6600,1893,88,1013,,Active,,,http://www.redfin.com/CA/Oakland/3113-Linden-St-94608/home/1799711,Bridge MLS,40841140,N,Y,37.8227613,-122.2793231
MLS Listing,,Multi-Family (5+ Unit),,Oakland,CA,94610,1550000,9,7.5,Oakland,3752,4900,1926,88,413,,Active,,,http://www.redfin.com/CA/Oakland/Undisclosed-address-94610/home/2000340,Bridge MLS,40841132,N,Y,37.8071385,-122.2425892
MLS Listing,,Multi-Family (2-4 Unit),3117 Minna Ave,Oakland,CA,94619,539000,5,3.0,Allendale,1955,4133,1924,88,276,,Active,,,http://www.redfin.com/CA/Oakland/3117-Minna-Ave-94619/home/1496788,Bridge MLS,40841110,N,Y,37.7871289,-122.2018083
MLS Listing,,Multi-Family (2-4 Unit),2460 Park Blvd,Oakland,CA,94606,1100000,6,6.0,Oakland,4104,5275,1952,88,268,,Active,,,http://www.redfin.com/CA/Oakland/2460-Park-Blvd-94606/home/1563424,Bridge MLS,40841094,N,Y,37.8020108,-122.2425449
MLS Listing,,Vacant Land,6060 GRIZZLY PEAK Blvd,Oakland,CA,94611,995000,,,Montclair Hills,,39102,,88,,,Active,,,http://www.redfin.com/CA/Oakland/6060-Grizzly-Peak-Blvd-94611/home/21635628,Bridge MLS,40841040,N,Y,37.852055,-122.209254
MLS Listing,,Multi-Family (2-4 Unit),2826 Havenscourt,Oakland,CA,94605,788000,4,2.0,Oakland,2992,3800,1928,89,263,,Active,,,http://www.redfin.com/CA/Oakland/2826-Havenscourt-Blvd-94605/home/146450553,Bridge MLS,40840938,N,Y,37.7701266,-122.1816337
MLS Listing,,Single Family Residential,1505 Mitchell St,Oakland,CA,94601,529000,3,2.0,Fruitvale,1506,2490,1920,90,351,,Active,,,http://www.redfin.com/CA/Oakland/1505-Mitchell-St-94601/home/2044756,Bridge MLS,40840791,N,Y,37.7813084,-122.2300463
MLS Listing,,Single Family Residential,2456 89th Ave,Oakland,CA,94605,550000,2,1.0,E Oakland,1022,4800,1941,91,538,,Active,,,http://www.redfin.com/CA/Oakland/2456-89th-Ave-94605/home/1458727,Bridge MLS,40840699,N,Y,37.7560688,-122.1620319
MLS Listing,,Single Family Residential,659 Cary Ave,Oakland,CA,94603,380000,1,1.0,Oakland,744,2496,1955,92,511,,Active,,,http://www.redfin.com/CA/Oakland/659-Cary-Ave-94603/home/591876,Bridge MLS,40840667,N,Y,37.7335486,-122.180126
MLS Listing,,Vacant Land,2540 Scout Rd,Oakland,CA,94611,35000,,,Oakland,,9231,,93,,,Active,,,http://www.redfin.com/CA/Oakland/2540-Scout-Rd-94611/home/148356794,Bridge MLS,40840574,N,Y,37.8199276,-122.2001218
MLS Listing,,Multi-Family (2-4 Unit),925 E 11Th St,Oakland,CA,94606,712500,4,2.0,Clinton Park,2265,6750,1897,93,315,,Active,,,http://www.redfin.com/CA/Oakland/925-E-11th-St-94606/home/1397925,Bridge MLS,40840570,N,Y,37.7909606,-122.2522502
MLS Listing,,Vacant Land,2510 Scout Rd,Oakland,CA,94611,35000,,,Oakland,,6771,,93,,,Active,,,http://www.redfin.com/CA/Oakland/2510-Scout-Rd-94611/home/148356796,Bridge MLS,40840565,N,Y,37.8199276,-122.2001218
MLS Listing,,Multi-Family (2-4 Unit),832 7Th Ave,Oakland,CA,94606,735000,4,2.0,Oakland,2407,2250,1913,93,305,,Active,,,http://www.redfin.com/CA/Oakland/832-7th-Ave-94606/home/532171,Bridge MLS,40840557,N,Y,37.791883,-122.255194
MLS Listing,,Single Family Residential,2409 Ransom Ave,Oakland,CA,94601,699000,4,3.0,Harrington,1186,8750,1924,93,589,,Active,,,http://www.redfin.com/CA/Oakland/2409-Ransom-Ave-94601/home/1970529,Bridge MLS,40840556,N,Y,37.7847801,-122.2103647
MLS Listing,,Vacant Land,6059 Girvin Dr,Oakland,CA,94611,278500,,,Montclair,,8434,,94,,,Active,,,http://www.redfin.com/CA/Oakland/6059-Girvin-Dr-94611/home/147298995,Bridge MLS,40840402,N,Y,37.8259157,-122.1955054
MLS Listing,,Vacant Land,6057 Girvin Dr,Oakland,CA,94611,149000,,,Montclair,,7116,,94,,,Active,,,http://www.redfin.com/CA/Oakland/6057-Girvin-Dr-94611/home/147298982,Bridge MLS,40840399,N,Y,37.8259266,-122.1954979
MLS Listing,,Vacant Land,0 Bagshotte,Oakland,CA,94611,49000,,,Montclair,,7037,,94,,,Active,,,http://www.redfin.com/CA/Oakland/Bagshotte-Dr-94611/home/22709695,Bridge MLS,40840397,N,Y,37.824752,-122.19727
MLS Listing,,Vacant Land,6508 Aitken Dr,Oakland,CA,94611,49000,,,Montclair,,3637,,94,,,Active,,,http://www.redfin.com/CA/Oakland/6508-Aitken-Dr-94611/home/148428861,Bridge MLS,40840396,N,Y,37.8302546,-122.1917746
MLS Listing,,Vacant Land,,Oakland,CA,94609,275000,,,North Oakland,,3893,,95,,,Active,,,http://www.redfin.com/CA/Oakland/Undisclosed-address-Unknown/home/113613726,Bridge MLS,40840218,N,Y,37.8181989,-122.2674009
MLS Listing,,Vacant Land,Buena Ventura,Oakland,CA,94608,120000,,,Oakland,,4802,,95,,,Active,,,http://www.redfin.com/CA/Oakland/0-Buena-Ventura-94608/home/147531529,Bridge MLS,40840061,N,Y,37.776438238,-122.1752416
MLS Listing,,Vacant Land,6595 Exeter,Oakland,CA,94611,149000,,,Montclair,,8455,,96,,,Active,,,http://www.redfin.com/CA/Oakland/6595-Exeter-Dr-94611/home/95970192,Bridge MLS,40840038,N,Y,37.8285695,-122.1893273
MLS Listing,,Vacant Land,6585 Exeter,Oakland,CA,94611,149000,,,Montclair,,6685,,96,,,Active,,,http://www.redfin.com/CA/Oakland/6585-Exeter-Dr-94611/home/95969517,Bridge MLS,40840037,N,Y,37.8286093,-122.1896395
MLS Listing,,Single Family Residential,10712 Stella St,Oakland,CA,94605,798000,5,4.0,Oakland Hills,3058,4840,1960,96,261,,Active,,,http://www.redfin.com/CA/Oakland/10712-Stella-St-94605/home/599083,Bridge MLS,40839987,N,Y,37.7470508,-122.1423822
MLS Listing,,Single Family Residential,5021 E 12Th St,Oakland,CA,94601,449000,4,1.0,East Oakland,874,2750,1900,96,514,,Active,,,http://www.redfin.com/CA/Oakland/5021-E-12th-St-94601/home/1041146,Bridge MLS,40839952,N,Y,37.7671983,-122.2103204
MLS Listing,,Vacant Land,1148 71St Ave,Oakland,CA,94621,99888,,,Oakland,,3000,,97,,,Active,,,http://www.redfin.com/CA/Oakland/1148-71st-Ave-94621/home/143096607,Bridge MLS,40839854,N,Y,37.758349,-122.190736
MLS Listing,,Vacant Land,0 Balsam Way,Oakland,CA,94611-999,220000,,,Montclair,,11000,,97,,,Active,,,http://www.redfin.com/CA/Oakland/Balsam-Way-94611/home/22794732,Bridge MLS,40839851,N,Y,37.848707,-122.20929
MLS Listing,,Vacant Land,9627 B St,Oakland,CA,94603,250000,,,Alameda County,,3751,,98,,,Active,,,http://www.redfin.com/CA/Oakland/9627-B-St-94603/home/22688971,BAREIS,21824968,N,Y,37.743585,-122.174854
MLS Listing,,Single Family Residential,6488 Melville Ln,Oakland,CA,94611,959000,4,3.0,Piedmont Pines,2166,5520,1959,100,443,,Active,December-30-2018 01:00 PM,December-30-2018 04:00 PM,http://www.redfin.com/CA/Oakland/6488-Melville-Ln-94611/home/1330801,Bridge MLS,40839530,N,Y,37.8232577,-122.1875756
MLS Listing,,Single Family Residential,11 Camisa Cir,Oakland,CA,99999-9999,695000,4,2.0,Sequoyah,1634,5360,1961,101,425,,Active,December-30-2018 02:00 PM,December-30-2018 04:00 PM,http://www.redfin.com/CA/Oakland/11-Camisa-Cir-94605/home/1607962,Bridge MLS,40839369,N,Y,37.758086,-122.1427149
MLS Listing,,Vacant Land,55-57 Panoramic Pl,Berkeley,CA,94704,195000,,,Berkeley,,7821,,102,,,Active,,,http://www.redfin.com/CA/Oakland/55-57-Panoramic-Pl-94704/home/147128010,Bridge MLS,40839250,N,Y,37.8696056,-122.2418523
MLS Listing,,Vacant Land,1912 Gouldin Rd,Oakland,CA,94611,175000,,,Montclair,,8689,,103,,,Active,,,http://www.redfin.com/CA/Oakland/1912-Gouldin-Rd-94611/home/28905045,Bridge MLS,40839036,N,Y,37.8369391,-122.2059946
MLS Listing,,Vacant Land,6298 Virgo,Oakland,CA,94611,749000,,,Montclair,,14102,,103,,,Active,,,http://www.redfin.com/CA/Oakland/6298-Virgo-Rd-94611/home/147116736,Bridge MLS,40839022,N,Y,37.8430639,-122.2150859
MLS Listing,,Multi-Family (2-4 Unit),1203 54th St,Emeryville,CA,94608,925000,4,2.0,Emeryville,1760,4134,1944,105,526,,Active,,,http://www.redfin.com/CA/Oakland/1203-54th-St-94608/home/634384,Bridge MLS,40838834,N,Y,37.837185,-122.284623
MLS Listing,,Multi-Family (2-4 Unit),968 45th St,Oakland,CA,94608,1875000,8,4.0,Alameda County,2970,5001,1966,107,631,,Active,,,http://www.redfin.com/CA/Oakland/968-45th-St-94608/home/1585848,BAREIS,21824287,N,Y,37.8350161,-122.274804
MLS Listing,,Single Family Residential,8430 Outlook Ave,Oakland,CA,94605-4135,575000,3,2.5,Toler Heights,1584,13740,1960,107,363,,Active,,,http://www.redfin.com/CA/Oakland/8430-Outlook-Ave-94605/home/1628779,Bridge MLS,40838715,N,Y,37.763077,-122.1591047
MLS Listing,,Single Family Residential,1437 77Th Ave,Oakland,CA,94621,399000,2,1.0,East Oakland,885,2500,1926,108,451,,Active,,,http://www.redfin.com/CA/Oakland/1437-77th-Ave-94621/home/1881989,Bridge MLS,40838450,N,Y,37.7586355,-122.1836403
MLS Listing,,Single Family Residential,1170 Ocean Ave,Oakland,CA,94608,600000,2,1.0,Emeryville,882,3924,1910,108,680,,Active,,,http://www.redfin.com/CA/Oakland/1170-Ocean-Ave-94608/home/1416942,Bridge MLS,40838371,N,Y,37.8469667,-122.2867215
MLS Listing,,Single Family Residential,16 Observation Pl,Oakland,CA,94611-1009,1490000,4,3.0,Montclair Hills,3163,11326,1999,109,471,,Active,,,http://www.redfin.com/CA/Oakland/16-Observation-Pl-94611/home/1447407,Bridge MLS,40838220,N,Y,37.848525,-122.2030497
MLS Listing,,Single Family Residential,927 40Th Ave,Oakland,CA,94601,399000,4,2.0,Fruitvale Area,1774,4850,1900,109,225,,Active,,,http://www.redfin.com/CA/Oakland/927-40th-Ave-94601/home/2005383,Bridge MLS,40838064,N,Y,37.7716758,-122.220206
MLS Listing,,Single Family Residential,925 40Th Ave,Oakland,CA,94601,399000,2,1.0,Fruitvale Area,1400,4875,1909,110,285,,Active,,,http://www.redfin.com/CA/Oakland/925-40th-Ave-94601/home/556005,Bridge MLS,40838062,N,Y,37.7715402,-122.2201616
MLS Listing,,Single Family Residential,1270 62nd St,EMERYVILLE,CA,94608,1191000,6,4.0,EMERYVILLE,2809,6150,1919,110,424,,Active,,,http://www.redfin.com/CA/Emeryville/1270-62nd-St-94608/home/1809979,MLSListings,ML81722903,N,Y,37.8439849,-122.287829
MLS Listing,,Single Family Residential,3232 Magnolia,Oakland,CA,94608,879000,4,2.0,Near Emeryville,1400,4997,1889,110,628,,Active,,,http://www.redfin.com/CA/Oakland/3232-Magnolia-St-94608/home/1328100,Bridge MLS,40837951,N,Y,37.8246078,-122.2815936
MLS Listing,,Single Family Residential,1423 15Th St,Oakland,CA,94607,560000,5,2.0,Oakland West,1229,2079,1892,111,456,,Active,,,http://www.redfin.com/CA/Oakland/1423-15th-St-94607/home/1443708,Bridge MLS,40837912,N,Y,37.811559,-122.2920484
MLS Listing,,Single Family Residential,1839 100th Ave,Oakland,CA,94603,299000,1,1.0,East Oakland,687,4025,1926,111,435,,Active,,,http://www.redfin.com/CA/Oakland/1839-100th-Ave-94603/home/1167102,Bridge MLS,40837860,N,Y,37.7444297,-122.1635953
MLS Listing,,Multi-Family (2-4 Unit),3575 Lincoln Ave,Oakland,CA,94602-2909,795000,2,2.0,Diamond District,1608,3639,1924,113,494,,Active,,,http://www.redfin.com/CA/Oakland/3575-Lincoln-Ave-94602/home/2013620,Bridge MLS,40837771,N,Y,37.8011766,-122.2129359
MLS Listing,,Single Family Residential,3814 Magee Ave,Oakland,CA,94619,599000,2,2.0,Upper Laurel,1297,4200,1924,114,462,,Active,,,http://www.redfin.com/CA/Oakland/3814-Magee-Ave-94619/home/1716233,Bridge MLS,40837699,N,Y,37.7946544,-122.1969313
MLS Listing,,Single Family Residential,5008 Manila,Oakland,CA,94609,849000,3,2.0,Temescal/R.Ridge,1010,3999,1926,114,841,,Active,,,http://www.redfin.com/CA/Oakland/5008-Manila-Ave-94609/home/1255830,Bridge MLS,40837541,N,Y,37.8355066,-122.2553082
MLS Listing,,Vacant Land,,Oakland,CA,94605,225000,,,Oak Knoll Hgts,,11121,,115,,,Active,,,http://www.redfin.com/CA/Oakland/Undisclosed-address-94605/home/22805001,Bridge MLS,40837404,N,Y,37.759133,-122.148613
MLS Listing,,Vacant Land,7207 Skyline Blvd,Oakland,CA,94611,237000,,,Montclair,,7054,,116,,,Active,,,http://www.redfin.com/CA/Oakland/7207-Skyline-Blvd-94611/home/146990573,Bridge MLS,40837197,N,Y,37.8428924,-122.1969353
MLS Listing,,Vacant Land,6959 Balsam Way,Oakland,CA,94611,299900,,,Montclair,,13600,,116,,,Active,,,http://www.redfin.com/CA/Oakland/6959-Balsam-Way-94611/home/22809525,Bridge MLS,40837168,N,Y,37.849412,-122.209751
MLS Listing,,Multi-Family (2-4 Unit),2242 Harrington Ave,Oakland,CA,94601,899975,8,4.0,Oakland,3387,5900,1964,116,266,,Active,,,http://www.redfin.com/CA/Oakland/2242-Harrington-Ave-94601/home/1563571,Bridge MLS,40836990,N,Y,37.7845238,-122.2121823
MLS Listing,,Townhouse,5907 Vallejo St Unit A,Emeryville,CA,94608,725000,2,2.0,Emeryville,1192,975,1991,117,608,,Active,December-30-2018 02:00 PM,December-30-2018 04:00 PM,http://www.redfin.com/CA/Emeryville/5907-Vallejo-St-94608/unit-A/home/124452775,Bridge MLS,40836880,N,Y,37.842171,-122.286705
MLS Listing,,Multi-Family (2-4 Unit),8421 DOWLING St,Oakland,CA,94605,480000,3,2.0,Oakland,1644,3750,1920,117,292,,Active,,,http://www.redfin.com/CA/Oakland/8421-Dowling-St-94605/home/1619473,Bridge MLS,40836828,N,Y,37.7588467,-122.1674871
MLS Listing,,Single Family Residential,,San Leandro,CA,94577,549950,2,1.0,Davis East Tract,885,5433,1942,119,621,,Active,,,http://www.redfin.com/CA/San-Leandro/Undisclosed-address-94577/home/770310,Bridge MLS,40836724,N,Y,37.7251841,-122.175248
MLS Listing,,Multi-Family (2-4 Unit),1169 75Th Ave,Oakland,CA,94621,579000,4,3.0,Oakland,1742,10000,1925,119,332,,Active,,,http://www.redfin.com/CA/Oakland/1169-75th-Ave-94621/home/1930519,Bridge MLS,40836719,N,Y,37.7568045,-122.1886398
MLS Listing,,Single Family Residential,11024 Novelda Dr,Oakland,CA,94603,530000,4,1.0,Sobrante Park,1075,4000,1944,120,493,,Active,,,http://www.redfin.com/CA/Oakland/11024-Novelda-Dr-94603/home/1975425,Bridge MLS,40836709,N,Y,37.7286417,-122.1736959
MLS Listing,,Townhouse,1016 SAN FRANCISCO Ct,Oakland,CA,94601,650000,3,2.0,Oakland,1324,1534,1997,121,491,291,Active,,,http://www.redfin.com/CA/Oakland/1016-San-Francisco-Ct-94601/home/1095846,Bridge MLS,40836541,N,Y,37.7765849,-122.2321388
MLS Listing,,Multi-Family (2-4 Unit),8213 International Blvd,Oakland,CA,94621,590000,2,1.0,Oakland,2253,3244,1916,122,262,,Active,,,http://www.redfin.com/CA/Oakland/8213-International-Blvd-94621/home/146946431,San Francisco MLS,475216,N,Y,37.7551217,-122.1791061
MLS Listing,,Vacant Land,1135 Glencourt Dr,Oakland,CA,94611,199000,,,Montclair,,5344,,124,,,Active,,,http://www.redfin.com/CA/Oakland/1135-Glencourt-Dr-94611/home/146888660,Bridge MLS,40836217,N,Y,37.8378666,-122.1958975
MLS Listing,,Single Family Residential,1451 88Th Ave,Oakland,CA,94621,449900,4,1.5,Oakland,1578,4600,1900,124,285,,Active,,,http://www.redfin.com/CA/Oakland/1451-88th-Ave-94621/home/1891798,Bridge MLS,40836216,N,Y,37.7517046,-122.1744054
MLS Listing,,Single Family Residential,8247 Skyline Cir,Oakland,CA,94605,1150000,4,3.5,Bayview Estates,2502,5445,2005,125,460,140,Active,,,http://www.redfin.com/CA/Oakland/8247-Skyline-Cir-94605/home/867582,Bridge MLS,40836120,N,Y,37.7728007,-122.1336429
MLS Listing,,Single Family Residential,9821 Sunnyside St,Oakland,CA,94603,475000,2,1.0,Oakland,1343,7500,1938,125,354,,Active,,,http://www.redfin.com/CA/Oakland/9821-Sunnyside-St-94603/home/594322,Bridge MLS,40836089,N,Y,37.7472596,-122.1627859
MLS Listing,,Condo/Co-op,2337 21st Ave,Oakland,CA,94606,999000,8,4.0,Oakland,3996,242890560,1880,130,,,Active,,,http://www.redfin.com/CA/Oakland/2337-21st-Ave-94606/home/534546,MetroList,18057972,N,Y,37.7924692,-122.2323068
MLS Listing,,Condo/Co-op,1121 40th St #5102,Emeryville,CA,94608,377400,2,2.0,Emeryville,758,,2006,131,498,453,Active,,,http://www.redfin.com/CA/Emeryville/1121-40th-St-94608/unit-5102/home/2113514,Bridge MLS,40835322,N,Y,37.8309967,-122.2785701
MLS Listing,,Multi-Family (2-4 Unit),502 Lewis St,Oakland,CA,94607,735000,4,3.0,Oakland,1645,3750,1901,135,447,,Active,,,http://www.redfin.com/CA/Oakland/502-Lewis-St-94607/home/525094,Bridge MLS,40834939,N,Y,37.8050477,-122.2982591
MLS Listing,,Single Family Residential,11050 Apricot St,Oakland,CA,94603,575000,3,3.0,Stonehurst,1410,2500,1910,136,408,,Active,,,http://www.redfin.com/CA/Oakland/11050-Apricot-St-94603/home/1619522,Bridge MLS,40834769,N,Y,37.7325075,-122.1701591
MLS Listing,,Vacant Land,947 92Nd Ave,Oakland,CA,94603,180000,,,Oakland,,5110,,137,,,Active,,,http://www.redfin.com/CA/Oakland/947-92nd-Ave-94603/home/12116972,Bridge MLS,40834583,N,Y,37.7454544,-122.1807277
MLS Listing,,Multi-Family (5+ Unit),3251 Martin Luther King Jr Way,OAKLAND,CA,94609,995000,7,,OAKLAND,2856,3824,1914,139,348,,Active,,,http://www.redfin.com/CA/Oakland/3251-Martin-Luther-King-Jr-Way-94609/home/1284417,MLSListings,ML81718782,N,Y,37.8222417,-122.2705839
MLS Listing,,Single Family Residential,1902 88Th Ave,Oakland,CA,94621,354000,1,1.0,88th Ave/D St,662,2400,1920,139,535,,Active,,,http://www.redfin.com/CA/Oakland/1902-88th-Ave-94621/home/773301,Bridge MLS,40834190,N,Y,37.7533502,-122.1701037
MLS Listing,,Single Family Residential,940 72nd Ave,Oakland,CA,94621,399950,3,1.0,Eastmont,978,2500,1952,140,409,,Active,,,http://www.redfin.com/CA/Oakland/940-72nd-Ave-94621/home/1457019,Bridge MLS,40834159,N,Y,37.7554805,-122.1939939
MLS Listing,,Single Family Residential,1244 61st Ave,Oakland,CA,94621,430000,3,1.0,Oakland,1109,3500,1955,142,388,,Active,,,http://www.redfin.com/CA/Oakland/1244-61st-Ave-94621/home/923195,Bridge MLS,40833966,N,Y,37.762268,-122.2005669
MLS Listing,,Single Family Residential,4200 Bemis St,Oakland,CA,94605,2499950,4,4.0,Chabot Park,4360,39842,2018,143,573,67,Active,,,http://www.redfin.com/CA/Oakland/4200-Bemis-St-94605/home/1923654,Bridge MLS,40833798,N,Y,37.7460899,-122.1294061
MLS Listing,,Multi-Family (2-4 Unit),2925 35Th Ave,Oakland,CA,94619,1088800,6,5.0,Oakland,3516,6875,1946,144,310,,Active,,,http://www.redfin.com/CA/Oakland/2925-35th-Ave-94619/home/1699289,Bridge MLS,40833560,N,Y,37.7901892,-122.2071728
MLS Listing,,Vacant Land,138/42 Gravatt Dr,Berkeley,CA,94705,895000,,,Claremont Hills,,15282,,145,,,Active,,,http://www.redfin.com/CA/Berkeley/42-Gravatt-Dr-94705/home/146497656,Bridge MLS,40833413,N,Y,37.8593068,-122.2380769
MLS Listing,,Single Family Residential,5829 Kingsley Cir,Oakland,CA,94605-1331,439000,2,1.0,Oakland,739,2079,1924,145,594,,Active,,,http://www.redfin.com/CA/Oakland/5829-Kingsley-Cir-94605/home/567329,Bridge MLS,40833400,N,Y,37.7724214,-122.1904689
MLS Listing,,Vacant Land,6813 Charing Cross Rd,Oakland,CA,94618,50000,,,Oakland,,6357,,148,,,Active,,,http://www.redfin.com/CA/Oakland/6813-Charing-Cross-Rd-94618/home/112380795,Bridge MLS,40833240,N,Y,37.8438192,-122.2398636
MLS Listing,,Vacant Land,6811 Charing Cross Rd,Oakland,CA,94618,50000,,,Oakland,,4829,,148,,,Active,,,http://www.redfin.com/CA/Oakland/6811-Charing-Cross-Rd-94618/home/112380752,Bridge MLS,40833239,N,Y,37.8438192,-122.2398636
MLS Listing,,Vacant Land,6815 Charing Cross Rd,Oakland,CA,94618,50000,,,Oakland,,6734,,148,,,Active,,,http://www.redfin.com/CA/Oakland/6815-Charing-Cross-Rd-94618/home/112380836,Bridge MLS,40833238,N,Y,37.8438192,-122.2398636
MLS Listing,,Multi-Family (2-4 Unit),7106 Lockwood St,Oakland,CA,94621,749999,5,3.0,Oakland,1994,4880,1930,148,376,,Active,,,http://www.redfin.com/CA/Oakland/7106-Lockwood-St-94621/home/1670968,Bridge MLS,40833196,N,Y,37.7640585,-122.1817224
MLS Listing,,Vacant Land,0 Woodrow Dr,Oakland,CA,94611,350000,,,Montclair,,14285,,149,,,Active,,,http://www.redfin.com/CA/Oakland/Woodrow-Dr-94611/home/22661795,Bridge MLS,40833088,N,Y,37.83435,-122.193304
MLS Listing,,Single Family Residential,2721 Brookdale Ave,OAKLAND,CA,94602,544950,2,1.0,OAKLAND,1089,4140,1925,149,500,,Active,,,http://www.redfin.com/CA/Oakland/2721-Brookdale-Ave-94602/home/1995016,MLSListings,ML81717438,N,Y,37.793114,-122.21994
MLS Listing,,Vacant Land,0 Gouldin Rd,Oakland,CA,94611,195000,,,Montclair,,9441,,152,,,Active,,,http://www.redfin.com/CA/Oakland/Gouldin-Rd-94611/home/22650336,Bridge MLS,40832533,N,Y,37.83698,-122.206162
MLS Listing,,Vacant Land,,Oakland,CA,94611,189000,,,Oakland,,7526,,152,,,Active,,,http://www.redfin.com/CA/Oakland/Undisclosed-address-94611/home/22646404,Bridge MLS,40832509,N,Y,37.830509,-122.202837
MLS Listing,,Multi-Family (2-4 Unit),2325 Hughes Ave,Oakland,CA,94601,729000,4,4.0,Fruitvale Area,7470,7470,1930,152,98,,Active,,,http://www.redfin.com/CA/Oakland/2325-Hughes-Ave-94601/home/550462,Bridge MLS,40832446,N,Y,37.7855322,-122.2210925
MLS Listing,,Multi-Family (2-4 Unit),2217 Coolidge Ave,Oakland,CA,94601,965000,10,5.0,Oakland,3783,6250,1965,152,255,,Active,,,http://www.redfin.com/CA/Oakland/2217-Coolidge-Ave-94601/home/1576516,CRMLS,OC18184123,N,Y,37.7842953,-122.2208709
MLS Listing,,Single Family Residential,9652 E St,Oakland,CA,94603,499000,2,1.0,East Oakland,972,3125,1914,152,513,,Active,,,http://www.redfin.com/CA/Oakland/9652-E-St-94603/home/1196984,Bridge MLS,40832421,N,Y,37.7423791,-122.1769775
MLS Listing,,Vacant Land,0 Revere Ave,OAKLAND,CA,94603,265000,,,OAKLAND,,5988,,153,,,Active,,,http://www.redfin.com/CA/Oakland/Revere-Ave-94605/home/22670958,MLSListings,ML81716872,N,Y,37.735166,-122.13238
MLS Listing,,Single Family Residential,7832 Hillmont Dr,Oakland,CA,94605-3326,939000,4,4.5,Eastmont Hills,3334,10644,2009,157,282,,Active,,,http://www.redfin.com/CA/Oakland/7832-Hillmont-Dr-94605/home/21711337,Bridge MLS,40831882,N,Y,37.7680251,-122.1637395
MLS Listing,,Vacant Land,00 Leona St,Oakland,CA,94619,150000,,,Oakland,,26983,,157,,,Active,,,http://www.redfin.com/CA/Oakland/Leona-St-Unknown/home/1880961,Bridge MLS,40831824,N,Y,37.787097,-122.174502
MLS Listing,,Single Family Residential,1200 75th Ave,Oakland,CA,94621,250000,0,,E Oakland,759,2500,1953,163,329,,Active,,,http://www.redfin.com/CA/Oakland/1200-75th-Ave-94621/home/143126664,Bridge MLS,40831165,N,Y,37.7569507,-122.1877464
MLS Listing,,Single Family Residential,1933 57th Ave,OAKLAND,CA,94621,489999,2,1.0,OAKLAND,906,2170,1926,163,541,,Active,,,http://www.redfin.com/CA/Oakland/1933-57th-Ave-94621/home/570599,MLSListings,ML81715547,N,Y,37.7692546,-122.1974633
MLS Listing,,Vacant Land,661 MacArthur Blvd,Oakland,CA,94610,1300000,,,Oakland,,13500,,164,,,Active,,,http://www.redfin.com/CA/Oakland/661-W-MacArthur-Blvd-94609/home/22646218,Bridge MLS,40831013,N,Y,37.80812,-122.24346
MLS Listing,,Single Family Residential,1320 95Th Ave,Oakland,CA,94603,329000,2,1.0,Elmhurst,596,3000,1912,165,552,,Active,,,http://www.redfin.com/CA/Oakland/1320-95th-Ave-94603/home/1914258,Bridge MLS,40830650,N,Y,37.745762,-122.173006
MLS Listing,,Vacant Land,54 Carisbrook Ln,Oakland,CA,94611,295000,,,Oakland,,8075,,166,,,Active,,,http://www.redfin.com/CA/Oakland/54-Carisbrook-Ln-94611/home/146008355,Bridge MLS,40830479,N,Y,37.8279533,-122.1897997
MLS Listing,,Vacant Land,6598 Exeter,Oakland,CA,94611,400000,,,Oakland,,6294,,166,,,Active,,,http://www.redfin.com/CA/Oakland/6598-Exeter-Dr-94611/home/103465408,Bridge MLS,40830475,N,Y,37.8281511,-122.1894305
MLS Listing,,Single Family Residential,1329 77Th Ave,Oakland,CA,94621,250000,1,1.0,East Oakland,410,3044,1920,169,610,,Active,,,http://www.redfin.com/CA/Oakland/1329-77th-Ave-94621/home/1649573,Bridge MLS,40830320,N,Y,37.7574842,-122.1847344
MLS Listing,,Single Family Residential,1321 77Th Ave,Oakland,CA,94621,500000,5,2.0,East Oakland,1532,4176,1954,169,326,,Active,,,http://www.redfin.com/CA/Oakland/1321-77th-Ave-94621/home/1509270,Bridge MLS,40830319,N,Y,37.7574816,-122.1848264
MLS Listing,,Single Family Residential,8810 NE Macarthur Blvd,Oakland,CA,94605,569000,3,2.0,N Oakland,1578,6500,1997,171,361,,Active,,,http://www.redfin.com/CA/Oakland/8810-MacArthur-Blvd-94605/home/1477643,Bridge MLS,40830018,N,Y,37.7570649,-122.1614554
MLS Listing,,Multi-Family (2-4 Unit),7231 Lockwood St,Oakland,CA,94621,750000,,,Oakland,2142,2400,1959,171,350,,Active,,,http://www.redfin.com/CA/Oakland/7231-Lockwood-St-94621/home/572308,Bridge MLS,40829818,N,Y,37.7632997,-122.1814896
MLS Listing,,Single Family Residential,3045 Pleitner Ave,Oakland,CA,94602,699000,3,2.0,Fruitvale Area,1032,8400,1904,173,677,,Active,,,http://www.redfin.com/CA/Oakland/3045-Pleitner-Ave-94602/home/539067,Bridge MLS,40829511,N,Y,37.7928761,-122.212537
