SALE TYPE,SOLD DATE,PROPERTY TYPE,ADDRESS,CITY,STATE,ZIP,PRICE,BEDS,BATHS,LOCATION,SQUARE FEET,LOT SIZE,YEAR BUILT,DAYS ON MARKET,$/SQUARE FEET,HOA/MONTH,STATUS,NEXT OPEN HOUSE START TIME,NEXT OPEN HOUSE END TIME,URL (SEE http://www.redfin.com/buy-a-home/comparative-market-analysis FOR INFO ON PRICING),SOURCE,MLS#,FAVORITE,INTERESTED,LATITUDE,LONGITUDE
MLS Listing,,Single Family Residential,2029 36th Ave,Oakland,CA,94601,515000,2,1.0,Fruitvale,813,3815,1909,5,633,,Active,,,http://www.redfin.com/CA/Oakland/2029-36th-Ave-94601/home/1957441,Bridge MLS,40844664,N,Y,37.7825782,-122.2164824
MLS Listing,,Single Family Residential,2551 94Th Ave,Oakland,CA,94605,499000,2,1.0,Toler Heights,860,5750,1939,6,580,,Active,November-11-2018 01:00 PM,November-11-2018 04:00 PM,http://www.redfin.com/CA/Oakland/2551-94th-Ave-94605/home/619062,Bridge MLS,40844509,N,Y,37.7535756,-122.1591934
MLS Listing,,Single Family Residential,2521 Coolidge Ave,Oakland,CA,94601,698000,3,2.5,Oakland,1830,5000,1900,22,381,,Active,,,http://www.redfin.com/CA/Oakland/2521-Coolidge-Ave-94601/home/1483212,San Francisco MLS,477634,N,Y,37.7876922,-122.2181669
MLS Listing,,Single Family Residential,3738 Virden Ave,Oakland,CA,94619,799000,3,2.0,Redwood Heights,1689,4136,1950,30,473,,Active,,,http://www.redfin.com/CA/Oakland/3738-Virden-Ave-94619/home/1666999,Bridge MLS,40841619,N,Y,37.7957372,-122.1908125
MLS Listing,,Single Family Residential,529 44th St,Oakland,CA,94609,795000,2,2.0,Temescal,900,4000,1922,1,883,,Active,,,http://www.redfin.com/CA/Oakland/529-44th-St-94609/home/659158,Bridge MLS,40845165,N,Y,37.832237,-122.2646576
MLS Listing,,Single Family Residential,1327 93rd,Oakland,CA,94603,488000,3,1.5,Oakland,1800,4176,1922,1,271,,Active,,,http://www.redfin.com/CA/Oakland/1327-93rd-Ave-94603/home/1872192,Bridge MLS,40845160,N,Y,37.7474658,-122.1743611
MLS Listing,,Multi-Family (2-4 Unit),3011 E 19Th St,Oakland,CA,94601,850000,,,Oakland,2652,6250,1915,1,321,,Active,,,http://www.redfin.com/CA/Oakland/3011-E-19th-St-94601/home/1618862,Bridge MLS,40845158,N,Y,37.782932,-122.22434
MLS Listing,,Single Family Residential,7900 Michigan Ave,Oakland,CA,94605,750000,4,2.0,Oakland Hills,2107,7650,1950,1,356,,Active,,,http://www.redfin.com/CA/Oakland/7900-Michigan-Ave-94605/home/577169,Bridge MLS,40845156,N,Y,37.7678652,-122.1621206
MLS Listing,,Single Family Residential,8118 Sunkist Dr,Oakland,CA,94605,768888,3,2.5,King Estates,1649,5520,1951,1,466,,Active,November-10-2018 01:00 PM,November-10-2018 04:00 PM,http://www.redfin.com/CA/Oakland/8118-Sunkist-Dr-94605/home/1118341,Bridge MLS,40845155,N,Y,37.7661411,-122.1583507
MLS Listing,,Single Family Residential,2463 Renwick,Oakland,CA,94601,589000,3,1.0,Maxwell  Park,1161,5160,1924,1,507,,Active,November-10-2018 02:00 PM,November-10-2018 04:30 PM,http://www.redfin.com/CA/Oakland/2463-Renwick-St-94601/home/1277200,Bridge MLS,40845146,N,Y,37.7788236,-122.201509
MLS Listing,,Single Family Residential,2232 8Th Ave,Oakland,CA,94606,675000,4,1.5,Ivy Hill,1567,4000,1910,1,431,,Active,,,http://www.redfin.com/CA/Oakland/2232-8th-Ave-94606/home/1618686,Bridge MLS,40844757,N,Y,37.7991117,-122.243254
MLS Listing,,Multi-Family (2-4 Unit),1195 79th Ave,Oakland,CA,94621,530000,4,3.0,Oakland,1744,6500,1910,1,304,,Active,,,http://www.redfin.com/CA/Oakland/1195-79th-Ave-94621/home/1189300,Bridge MLS,40845097,N,Y,37.7550861,-122.186201
MLS Listing,,Single Family Residential,9030 Plymouth St,Oakland,CA,94603,339000,1,1.0,Ivy Wood Ext.,440,1700,1925,1,770,,Active,,,http://www.redfin.com/CA/Oakland/9030-Plymouth-St-94603/home/1422840,Bridge MLS,40845091,N,Y,37.7506101,-122.1705583
MLS Listing,,Single Family Residential,6062 Glenarms Dr,Oakland,CA,94611,1495000,3,2.5,Montclair,3917,10286,1995,1,382,,Active,November-11-2018 02:00 PM,November-11-2018 04:30 PM,http://www.redfin.com/CA/Oakland/6062-Glenarms-Dr-94611/home/1364055,Bridge MLS,40845080,N,Y,37.8465694,-122.2249489
MLS Listing,,Single Family Residential,2033 Myrtle St,Oakland,CA,94607,599000,2,2.0,Alameda County,1137,3964,1907,1,527,,Active,,,http://www.redfin.com/CA/Oakland/2033-Myrtle-St-94607/home/1321510,BAREIS,21828606,N,Y,37.81353,-122.280421
MLS Listing,,Single Family Residential,11 Littlewood Dr,Piedmont,CA,94611,1895000,4,2.5,Piedmont,2466,7081,1964,2,768,,Active,,,http://www.redfin.com/CA/Piedmont/11-Littlewood-Dr-94611/home/1843344,Bridge MLS,40845022,N,Y,37.824334,-122.2215358
MLS Listing,,Single Family Residential,5518 E 15Th St,Oakland,CA,94621,415000,2,1.5,Oakland,1039,3300,1913,3,399,,Active,,,http://www.redfin.com/CA/Oakland/5518-E-15th-St-94621/home/1517106,Bridge MLS,40845012,N,Y,37.768067,-122.201552
MLS Listing,,Single Family Residential,2215 87Th Ave,Oakland,CA,94605,539000,3,2.0,Oakland,1547,5000,1919,3,348,,Active,November-11-2018 02:00 PM,November-11-2018 04:00 PM,http://www.redfin.com/CA/Oakland/2215-87th-Ave-94605/home/586325,Bridge MLS,40845008,N,Y,37.7560486,-122.1669992
MLS Listing,,Single Family Residential,2434 E 23Rd St,Oakland,CA,94601,850000,4,2.5,Oakland,1540,4280,1898,3,552,,Active,,,http://www.redfin.com/CA/Oakland/2434-E-23rd-St-94601/home/537634,Bridge MLS,40845006,N,Y,37.7888049,-122.2273425
MLS Listing,,Single Family Residential,1652 101st Ave,Oakland,CA,94603,449950,2,1.0,Ivy Wood Ext.,895,5252,1921,3,503,,Active,,,http://www.redfin.com/CA/Oakland/1652-101st-Ave-94603/home/1330571,Bridge MLS,40844991,N,Y,37.7428546,-122.1654913
MLS Listing,,Single Family Residential,1423 E 32nd St,Oakland,CA,94602,725000,3,2.0,Highland Heights,1232,3400,1924,3,588,,Active,,,http://www.redfin.com/CA/Oakland/1423-E-32nd-St-94602/home/1820451,Bridge MLS,40844989,N,Y,37.799667,-122.2305782
MLS Listing,,Single Family Residential,3301 Martin Luther King Jr Way,Oakland,CA,94609,875000,4,1.5,Elmwood,2027,4510,1912,3,432,,Active,,,http://www.redfin.com/CA/Oakland/3301-Martin-Luther-King-Jr-Way-94609/home/525743,Bridge MLS,40844983,N,Y,37.8229027,-122.270462
MLS Listing,,Single Family Residential,4621 Dolores Ave,Oakland,CA,94602,669000,1,1.0,Glenview Upper,1037,3200,1923,3,645,,Active,,,http://www.redfin.com/CA/Oakland/4621-Dolores-Ave-94602/home/1888434,Bridge MLS,40844968,N,Y,37.808804,-122.2173689
MLS Listing,,Single Family Residential,5815 avenal Ave,Oakland,CA,94605,439000,2,1.5,Oakland,1333,5120,1917,4,329,,Active,November-10-2018 02:00 PM,November-10-2018 04:00 PM,http://www.redfin.com/CA/Oakland/5815-Avenal-Ave-94605/home/1871970,San Francisco MLS,478448,N,Y,37.770615,-122.193099
MLS Listing,,Single Family Residential,4817 Walnut,Oakland,CA,94619,575000,2,1.0,Maxwell  Park,1060,4080,1920,4,542,,Active,,,http://www.redfin.com/CA/Oakland/4817-Walnut-St-94619/home/1398850,Bridge MLS,40844907,N,Y,37.7793905,-122.1996802
MLS Listing,,Single Family Residential,2350 Courtland Ave,Oakland,CA,94601,699000,2,1.0,Lower Maxwell,1138,4125,1936,4,614,,Active,November-11-2018 02:00 PM,November-11-2018 04:30 PM,http://www.redfin.com/CA/Oakland/2350-Courtland-Ave-94601/home/1986944,Bridge MLS,40844905,N,Y,37.7795002,-122.2053107
MLS Listing,,Single Family Residential,5720 Nottingham Dr,Oakland,CA,94611,925000,3,2.0,Montclair,1311,8505,1928,4,706,,Active,,,http://www.redfin.com/CA/Oakland/5720-Nottingham-Dr-94611/home/945667,Bridge MLS,40844886,N,Y,37.836644,-122.2139112
MLS Listing,,Multi-Family (2-4 Unit),87 Linda Ave,Oakland,CA,94611,1100000,5,2.0,Oakland,2680,3000,1906,4,410,,Active,November-8-2018 10:00 AM,November-8-2018 01:00 PM,http://www.redfin.com/CA/Piedmont/87-Linda-Ave-94611/home/528188,Bridge MLS,40844865,N,Y,37.825482,-122.2487493
MLS Listing,,Single Family Residential,6301 Longcroft Dr,Oakland,CA,94611,978000,4,3.0,Piedmont Pines,2203,7398,1956,4,444,,Active,November-11-2018 02:00 PM,November-11-2018 04:30 PM,http://www.redfin.com/CA/Oakland/6301-Longcroft-Dr-94611/home/615528,Bridge MLS,40844848,N,Y,37.8218495,-122.194271
MLS Listing,,Single Family Residential,3624 Nevil St,Oakland,CA,94601,599000,2,1.0,Allendale,1015,3710,1923,4,590,,Active,November-10-2018 02:00 PM,November-10-2018 04:30 PM,http://www.redfin.com/CA/Oakland/3624-Nevil-St-94601/home/772642,Bridge MLS,40844841,N,Y,37.7861245,-122.2092564
MLS Listing,,Single Family Residential,3424 Salisbury St,Oakland,CA,94601,549900,2,1.0,Foothill,930,3955,1938,4,591,,Active,,,http://www.redfin.com/CA/Oakland/3424-Salisbury-St-94601/home/539255,Bridge MLS,40844838,N,Y,37.7862242,-122.2167483
MLS Listing,,Single Family Residential,2354 26th Ave,Oakland,CA,94601,465000,3,2.0,Oakland,1015,3270,,4,458,,Active,,,http://www.redfin.com/CA/Oakland/2354-26th-Ave-94601/home/1289204,San Francisco MLS,477784,N,Y,37.7882609,-122.2252481
MLS Listing,,Single Family Residential,3944 Huntington St,Oakland,CA,94619,659000,2,1.0,Laurel,1069,3838,1939,4,616,,Active,,,http://www.redfin.com/CA/Oakland/3944-Huntington-St-94619/home/549629,Bridge MLS,40844834,N,Y,37.7894934,-122.1875424
MLS Listing,,Townhouse,6311 Rocky Point Ct,Oakland,CA,94605-3133,849000,4,2.5,Alameda County,2415,2415,2012,4,352,263,Active,November-10-2018 12:00 PM,November-10-2018 02:00 PM,http://www.redfin.com/CA/Oakland/6311-Rocky-Point-Ct-94605/home/22677382,Bridge MLS,40844824,N,Y,37.7776461,-122.1622093
MLS Listing,,Single Family Residential,5822 E 16th St,Oakland,CA,94621-4235,498000,3,2.5,Seminary,1198,2700,1991,4,416,,Active,,,http://www.redfin.com/CA/Oakland/5822-E-16th-St-94621/home/1607669,Bridge MLS,40844801,N,Y,37.7665916,-122.1983348
MLS Listing,,Single Family Residential,21 Murdock Ct,Oakland,CA,94605,649900,3,2.0,Millsmont Area,1455,8385,1926,4,447,,Active,,,http://www.redfin.com/CA/Oakland/21-Murdock-Ct-94605/home/1727872,Bridge MLS,40844790,N,Y,37.7756412,-122.1843387
MLS Listing,,Multi-Family (2-4 Unit),2020 17Th Ave,Oakland,CA,94606,499000,5,3.0,Oakland,1202,3000,,4,415,,Active,,,http://www.redfin.com/CA/Oakland/2020-17th-Ave-94606/home/1945893,Bridge MLS,40844785,N,Y,37.7921183,-122.2386115
MLS Listing,,Single Family Residential,3060 Dakota St,Oakland,CA,94602,655000,2,2.0,Laurel,1109,5000,1924,5,591,,Active,,,http://www.redfin.com/CA/Oakland/3060-Dakota-St-94602/home/1641928,Bridge MLS,40844767,N,Y,37.7956155,-122.2047787
MLS Listing,,Single Family Residential,1744 Seminary Ave,Oakland,CA,94621,365000,2,1.0,Oakland,918,2850,1923,5,398,,Active,,,http://www.redfin.com/CA/Oakland/1744-Seminary-Ave-94621/home/569875,Bridge MLS,40844760,N,Y,37.7670538,-122.1964879
MLS Listing,,Single Family Residential,5456 Locksley Ave,OAKLAND,CA,94618,1200000,4,2.5,OAKLAND,2434,4000,1930,5,493,,Active,November-10-2018 01:00 PM,November-10-2018 04:00 PM,http://www.redfin.com/CA/Oakland/5456-Locksley-Ave-94618/home/1799353,MLSListings,ML81729904,N,Y,37.8430293,-122.2540038
MLS Listing,,Single Family Residential,1085 66Th St,Oakland,CA,94608,648000,2,2.0,Emeryville Bordr,744,3300,1908,5,871,,Active,,,http://www.redfin.com/CA/Oakland/1085-66th-St-94608/home/1362223,Bridge MLS,40844738,N,Y,37.8489138,-122.2843735
MLS Listing,,Single Family Residential,1351 92Nd Ave,Oakland,CA,94603,395000,2,1.0,Elmhurst,1006,5500,1920,5,393,,Active,November-11-2018 01:00 PM,November-11-2018 04:00 PM,http://www.redfin.com/CA/Oakland/1351-92nd-Ave-94603/home/1458734,Bridge MLS,40844691,N,Y,37.7483363,-122.1744256
MLS Listing,,Single Family Residential,2301 66th Ave,Oakland,CA,94605,425000,2,1.0,Havenscourt,884,3500,1925,5,481,,Active,November-10-2018 02:00 PM,November-10-2018 04:30 PM,http://www.redfin.com/CA/Oakland/2301-66th-Ave-94605/home/1571805,Bridge MLS,40844690,N,Y,37.7659979,-122.1888504
MLS Listing,,Single Family Residential,71 Wildwood Ave,Piedmont,CA,94610,1249000,3,1.5,Piedmont,1729,5550,1922,5,722,,Active,November-11-2018 02:00 PM,November-11-2018 04:30 PM,http://www.redfin.com/CA/Piedmont/71-Wildwood-Ave-94610/home/1810312,Bridge MLS,40844685,N,Y,37.8202209,-122.24211
MLS Listing,,Single Family Residential,6719 Lucille St,Oakland,CA,94621,399000,3,1.0,East Oakland,1014,3984,1944,5,393,,Active,,,http://www.redfin.com/CA/Oakland/6719-Lucille-St-94621/home/1587953,Bridge MLS,40844658,N,Y,37.759398,-122.1949361
MLS Listing,,Single Family Residential,4267 Coolidge Ave,Oakland,CA,94602,1038000,5,4.0,Lincoln Heights,3485,7344,1955,5,298,,Active,November-11-2018 02:00 PM,November-11-2018 04:00 PM,http://www.redfin.com/CA/Oakland/4267-Coolidge-Ave-94602/home/1798371,Bridge MLS,40844645,N,Y,37.8063153,-122.2006112
MLS Listing,,Multi-Family (2-4 Unit),1720 Clemens Rd,Oakland,CA,94602,1795000,10,6.0,Oakmore Highland,5791,8236,1951,5,310,,Active,,,http://www.redfin.com/CA/Oakland/1720-Clemens-Rd-94602/home/2000452,Bridge MLS,40844635,N,Y,37.8113508,-122.2128694
MLS Listing,,Single Family Residential,7081 Elverton Dr,Oakland,CA,94611,1199000,4,3.0,Montclair Hills,2981,13779,1992,5,402,,Active,,,http://www.redfin.com/CA/Oakland/7081-Elverton-Dr-94611/home/1342622,Bridge MLS,40844629,N,Y,37.8446284,-122.1974136
MLS Listing,,Single Family Residential,2726 60Th Ave,Oakland,CA,94605,639000,3,2.0,Seminary,1878,4400,1922,5,340,,Active,,,http://www.redfin.com/CA/Oakland/2726-60th-Ave-94605/home/1363222,Bridge MLS,40844612,N,Y,37.7720382,-122.1878417
MLS Listing,,Single Family Residential,4410 San Carlos Ave,Oakland,CA,94601,398888,2,1.0,Maxwell Pk Area,880,2772,1904,6,453,,Active,November-10-2018 02:00 PM,November-10-2018 04:30 PM,http://www.redfin.com/CA/Oakland/4410-San-Carlos-Ave-94601/home/728744,Bridge MLS,40844591,N,Y,37.7783149,-122.2075163
MLS Listing,,Single Family Residential,7207 LOCKWOOD St,Oakland,CA,94621,499999,2,2.0,East Oakland,816,4880,1907,6,613,,Active,,,http://www.redfin.com/CA/Oakland/7207-Lockwood-St-94621/home/572302,Bridge MLS,40844585,N,Y,37.7635705,-122.1818554
MLS Listing,,Single Family Residential,5546 E 16Th St,Oakland,CA,94621,640000,3,2.0,Melrose,828,3100,1914,6,773,,Active,,,http://www.redfin.com/CA/Oakland/5546-E-16th-St-94621/home/1888900,Bridge MLS,40844570,N,Y,37.7681471,-122.2005217
MLS Listing,,Multi-Family (2-4 Unit),862 56TH St,Oakland,CA,94608,899000,4,2.0,Oakland,2304,3800,1906,6,390,,Active,November-10-2018 03:00 PM,November-10-2018 05:00 PM,http://www.redfin.com/CA/Oakland/862-56th-St-94608/home/1285755,Bridge MLS,40844563,N,Y,37.8405338,-122.2725887
MLS Listing,,Multi-Family (2-4 Unit),1584 80th Ave,OAKLAND,CA,94621,700000,8,,OAKLAND,2486,4250,1927,6,282,,Active,,,http://www.redfin.com/CA/Oakland/1584-80th-Ave-94621/home/573514,MLSListings,ML81729711,N,Y,37.757831,-122.178525
MLS Listing,,Multi-Family (2-4 Unit),708 32Nd St,Oakland,CA,94609,700000,4,2.0,Oakland,1620,3000,1908,6,432,,Active,,,http://www.redfin.com/CA/Oakland/708-32nd-St-94609/home/1700760,Bridge MLS,40844535,N,Y,37.8219645,-122.27219
MLS Listing,,Multi-Family (2-4 Unit),667 35th St,Oakland,CA,94609-2908,1500000,8,4.5,Oakland,2824,6000,1898,6,531,,Active,November-11-2018 01:00 PM,November-11-2018 04:00 PM,http://www.redfin.com/CA/Oakland/667-35th-St-94609/home/1871005,Bridge MLS,40844534,N,Y,37.8242271,-122.2706518
MLS Listing,,Single Family Residential,2259 Mastlands Dr,Oakland,CA,94611,792000,3,3.0,Piedmont Pines,1564,6076,1976,6,506,,Active,November-11-2018 02:00 PM,November-11-2018 04:30 PM,http://www.redfin.com/CA/Oakland/2259-Mastlands-Dr-94611/home/1806886,Bridge MLS,40844533,N,Y,37.8191965,-122.1985717
MLS Listing,,Single Family Residential,462 44Th St,Oakland,CA,94609,1325000,5,4.0,Temescal,2197,4280,1906,6,603,,Active,November-10-2018 02:00 PM,November-10-2018 04:30 PM,http://www.redfin.com/CA/Oakland/462-44th-St-94609/home/1754643,Bridge MLS,40844515,N,Y,37.832689,-122.261424
MLS Listing,,Single Family Residential,1816 63rd St,Berkeley,CA,94703,839000,4,3.5,Berkeley,2369,5400,1909,6,354,,Active,November-10-2018 02:00 PM,November-10-2018 04:30 PM,http://www.redfin.com/CA/Berkeley/1816-63rd-St-94703/home/1289135,Bridge MLS,40844502,N,Y,37.8477433,-122.2701962
MLS Listing,,Single Family Residential,985 44Th St,Oakland,CA,94608,1150000,5,4.5,Nobe,3167,5000,1925,6,363,,Active,,,http://www.redfin.com/CA/Oakland/985-44th-St-94608/home/1841195,Bridge MLS,40844500,N,Y,37.8339126,-122.2752471
MLS Listing,,Single Family Residential,1250 Haskell St,Berkeley,CA,94702,750000,2,1.0,Berkeley,811,3500,1923,6,925,,Active,,,http://www.redfin.com/CA/Berkeley/1250-Haskell-St-94702/home/1163300,Bridge MLS,40844490,N,Y,37.8508293,-122.283709
MLS Listing,,Single Family Residential,1042 60Th St,Oakland,CA,94608,795000,2,1.0,North Oakland,967,4405,1946,6,822,,Active,November-11-2018 02:00 PM,November-11-2018 04:30 PM,http://www.redfin.com/CA/Oakland/1042-60th-St-94608/home/2029536,Bridge MLS,40844483,N,Y,37.8436129,-122.2811395
MLS Listing,,Single Family Residential,3038 75Th Ave,Oakland,CA,94605,568000,3,2.0,Eastmont Hills,1006,3404,1941,6,565,,Active,,,http://www.redfin.com/CA/Oakland/3038-75th-Ave-94605/home/1422782,Bridge MLS,40844355,N,Y,37.7704904,-122.1681967
MLS Listing,,Single Family Residential,1516 Holman Rd,Oakland,CA,94610,895000,3,2.0,Crocker Hghlands,1448,4400,1948,6,618,,Active,November-10-2018 01:00 PM,November-10-2018 04:00 PM,http://www.redfin.com/CA/Oakland/1516-Holman-Rd-94610/home/1880713,Bridge MLS,40844477,N,Y,37.807804,-122.225159
MLS Listing,,Single Family Residential,3206 Champion St,Oakland,CA,94602,529998,3,1.0,Diamond District,728,3300,1921,7,728,,Active,November-10-2018 12:00 PM,November-10-2018 03:00 PM,http://www.redfin.com/CA/Oakland/3206-Champion-St-94602/home/1727469,Bridge MLS,40844422,N,Y,37.7969706,-122.2157287
MLS Listing,,Single Family Residential,5304 Bryant Ave,Oakland,CA,94618,875000,4,2.0,Rockridge,1587,3159,1914,7,551,,Active,November-10-2018 02:00 PM,November-10-2018 04:00 PM,http://www.redfin.com/CA/Oakland/5304-Bryant-Ave-94618/home/1963921,Bridge MLS,40844403,N,Y,37.8379121,-122.2509984
MLS Listing,,Single Family Residential,6930 Lacey Ave,Oakland,CA,94605,615000,3,2.0,Eastmont,1458,6435,1927,7,422,,Active,,,http://www.redfin.com/CA/Oakland/6930-Lacey-Ave-94605/home/1607723,Bridge MLS,40844370,N,Y,37.7713168,-122.173075
MLS Listing,,Multi-Family (2-4 Unit),8920 International Blvd,Oakland,CA,94621,499000,4,2.0,Oakland,1920,4000,1900,7,260,,Active,,,http://www.redfin.com/CA/Oakland/8920-International-Blvd-94621/home/147918263,Bridge MLS,40844364,N,Y,37.7499785,-122.1743167
MLS Listing,,Single Family Residential,2251 87TH Ave,Oakland,CA,94605,429000,3,1.0,East Oakland,1364,3300,1921,7,315,,Active,,,http://www.redfin.com/CA/Oakland/2251-87th-Ave-94605/home/586305,Bridge MLS,40844344,N,Y,37.7564162,-122.1661899
MLS Listing,,Multi-Family (2-4 Unit),3341 72Nd Ave,Oakland,CA,94605,499000,2,2.0,Oakland,1416,6191,1939,8,352,,Active,,,http://www.redfin.com/CA/Oakland/3341-72nd-Ave-94605/home/1533058,Bridge MLS,40844275,N,Y,37.7703769,-122.1723655
MLS Listing,,Single Family Residential,2465 Siesta Ln,Oakland,CA,94603,529950,4,2.0,East Oakland,1374,2409,2003,8,386,80,Active,,,http://www.redfin.com/CA/Oakland/2465-Siesta-Ln-94603/home/1213940,Bridge MLS,40844274,N,Y,37.7534562,-122.1615773
MLS Listing,,Single Family Residential,4218 PORTER St,Oakland,CA,94619,588000,2,1.0,High Street,863,3440,1917,8,681,,Active,,,http://www.redfin.com/CA/Oakland/4218-Porter-St-94619/home/1340887,Bridge MLS,40844264,N,Y,37.7869665,-122.197818
MLS Listing,,Single Family Residential,5639 Picardy Dr S,Oakland,CA,94605,799000,4,2.0,Maxwell  Park,1675,3534,1926,9,477,,Active,November-10-2018 01:30 PM,November-10-2018 04:30 PM,http://www.redfin.com/CA/Oakland/5639-Picardy-Dr-S-94605/home/1670940,Bridge MLS,40844232,N,Y,37.7746641,-122.1902361
MLS Listing,,Single Family Residential,6474 Outlook Ave,Oakland,CA,94605,699999,3,3.0,Upper Millsmont,1500,7000,1924,9,467,,Active,,,http://www.redfin.com/CA/Oakland/6474-Outlook-Ave-94605/home/565198,Bridge MLS,40844228,N,Y,37.775496,-122.1755141
MLS Listing,,Single Family Residential,5001 Fairfax,Oakland,CA,94601,480000,3,1.0,Maxwell Pk Area,1430,3216,1929,9,336,,Active,,,http://www.redfin.com/CA/Oakland/5001-Fairfax-Ave-94601/home/1809237,Bridge MLS,40844227,N,Y,37.7767707,-122.2016088
MLS Listing,,Multi-Family (2-4 Unit),9312 Holly St,Oakland,CA,94603,549000,4,2.0,Oakland,1610,6098,1949,9,341,,Active,,,http://www.redfin.com/CA/Oakland/9312-Holly-St-94603/home/147910117,Bridge MLS,40844226,N,Y,37.7482554,-122.1717137
MLS Listing,,Single Family Residential,840 7Th Ave,Oakland,CA,94606,779000,3,2.0,Oakland,1807,2250,1910,9,431,,Active,,,http://www.redfin.com/CA/Oakland/840-7th-Ave-94606/home/536280,Bridge MLS,40844217,N,Y,37.7918646,-122.2551722
MLS Listing,,Single Family Residential,2506 63rd Ave,OAKLAND,CA,94605,428888,2,1.0,OAKLAND,894,4760,1922,9,480,,Active,,,http://www.redfin.com/CA/Oakland/2506-63rd-Ave-94605/home/567794,MLSListings,ML81729291,N,Y,37.7684765,-122.1886398
MLS Listing,,Single Family Residential,1436 74Th Ave,Oakland,CA,94621,449000,3,1.0,Eastmont,1024,4050,1924,10,438,,Active,,,http://www.redfin.com/CA/Oakland/1436-74th-Ave-94621/unit-94621/home/1957650,Bridge MLS,40844196,N,Y,37.759212,-122.1852366
MLS Listing,,Single Family Residential,1601 85Th Ave,Oakland,CA,94621,399000,2,1.0,Eastmont,676,1800,1927,10,590,,Active,,,http://www.redfin.com/CA/Oakland/1601-85th-Ave-94621/home/1681256,Bridge MLS,40844193,N,Y,37.7545952,-122.1756915
MLS Listing,,Multi-Family (2-4 Unit),973 26Th St,Oakland,CA,94607,750000,6,4.0,West Oak,2000,4280,1985,10,375,,Active,,,http://www.redfin.com/CA/Oakland/973-26th-St-94607/home/1890612,Bridge MLS,40844181,N,Y,37.8177004,-122.2791901
MLS Listing,,Single Family Residential,593 Mountain Blvd,Oakland,CA,94611,1295000,4,2.5,Montclair,2650,8680,1993,10,489,,Active,,,http://www.redfin.com/CA/Oakland/593-Mountain-Blvd-94611/home/887348,Bridge MLS,40844160,N,Y,37.8442572,-122.2245943
MLS Listing,,Single Family Residential,2969 Morcom Ave,Oakland,CA,94619,599000,3,1.0,Maxwell  Park,1146,4033,1925,10,523,,Active,,,http://www.redfin.com/CA/Oakland/2969-Morcom-Ave-94619/home/560339,Bridge MLS,40844157,N,Y,37.7786838,-122.1910231
MLS Listing,,Single Family Residential,804 Mandana Blvd,Oakland,CA,94610,998000,3,2.5,Crocker Hghlands,1884,5500,1918,11,530,,Active,,,http://www.redfin.com/CA/Oakland/804-Mandana-Blvd-94610/home/1476027,Bridge MLS,40844142,N,Y,37.8119557,-122.2327944
MLS Listing,,Single Family Residential,2503 19th Ave,Oakland,CA,94606,699000,4,2.5,Highland,1280,4450,1912,11,546,,Active,,,http://www.redfin.com/CA/Oakland/2503-19th-Ave-94606/home/147868278,Bridge MLS,40844137,N,Y,37.7947257,-122.2334592
MLS Listing,,Single Family Residential,2048 104Th Ave,Oakland,CA,94603,490000,4,3.0,Durant Manor,1044,3142,1939,11,469,,Active,,,http://www.redfin.com/CA/Oakland/2048-104th-Ave-94603/home/1031569,Bridge MLS,40844136,N,Y,37.7419234,-122.1597256
MLS Listing,,Single Family Residential,7217 Skyline Blvd,Oakland,CA,94611,1395000,4,3.5,Thornhill,4573,7953,2006,11,305,,Active,,,http://www.redfin.com/CA/Oakland/7217-Skyline-Blvd-94611/home/12348763,Bridge MLS,40844129,N,Y,37.8428479,-122.1967539
MLS Listing,,Multi-Family (2-4 Unit),326 Center St,Oakland,CA,94607,899000,6,4.0,Oakland,2100,2960,1889,11,428,,Active,November-10-2018 01:00 PM,November-10-2018 03:00 PM,http://www.redfin.com/CA/Oakland/326-Center-St-94607/home/726976,Bridge MLS,40844123,N,Y,37.803143,-122.295371
MLS Listing,,Single Family Residential,3538 Mangels Ave,Oakland,CA,94619,599950,2,1.0,Allendale,817,1750,1927,11,734,,Active,,,http://www.redfin.com/CA/Oakland/3538-Mangels-Ave-94619/home/1995177,Bridge MLS,40844104,N,Y,37.790703,-122.2042356
MLS Listing,,Single Family Residential,1114 Winsor Ave,Piedmont,CA,94610,2250000,5,2.5,Wildwood,3101,5451,1924,11,726,,Active,,,http://www.redfin.com/CA/Piedmont/1114-Winsor-Ave-94610/home/645173,Bridge MLS,40844098,N,Y,37.8189667,-122.2374038
MLS Listing,,Single Family Residential,838 Paramount Rd,Oakland,CA,94610,2150000,4,2.5,Crocker Hghlands,2402,5200,1925,11,895,16,Active,,,http://www.redfin.com/CA/Oakland/838-Paramount-Rd-94610/home/526892,Bridge MLS,40844096,N,Y,37.8108107,-122.2314203
MLS Listing,,Single Family Residential,5980 Mcandrew Dr,Oakland,CA,94611,2450000,4,5.0,Piedmont Side,4032,11520,1940,11,608,,Active,,,http://www.redfin.com/CA/Oakland/5980-McAndrew-Dr-94611/home/1564645,Bridge MLS,40844062,N,Y,37.8291241,-122.2162164
MLS Listing,,Single Family Residential,3000 56th,Oakland,CA,94605,819000,4,2.0,Mills Gardens,2302,2302,1925,11,356,,Active,,,http://www.redfin.com/CA/Oakland/3000-56th-Ave-94605/home/568107,Bridge MLS,40844060,N,Y,37.7765469,-122.1884625
MLS Listing,,Multi-Family (2-4 Unit),498 Stow Ave,Oakland,CA,94606,1450000,4,4.0,Haddon Hill,2083,4601,1915,11,696,,Active,,,http://www.redfin.com/CA/Oakland/498-Stow-Ave-94606/home/1936420,Bridge MLS,40844049,N,Y,37.8036351,-122.2493279
MLS Listing,,Single Family Residential,6692 Sobrante Rd,Oakland,CA,94611,749000,3,2.0,Montclair,1553,6950,1964,11,482,,Active,,,http://www.redfin.com/CA/Oakland/6692-Sobrante-Rd-94611/home/964112,Bridge MLS,40844040,N,Y,37.8430765,-122.2010102
MLS Listing,,Single Family Residential,163 Perry Pl,Oakland,CA,94610,875000,4,2.0,Adams Point,2831,4000,1928,11,309,,Active,,,http://www.redfin.com/CA/Oakland/163-Perry-Pl-94610/home/912408,Bridge MLS,40844037,N,Y,37.818272,-122.2538961
MLS Listing,,Single Family Residential,621 Mountain Blvd,Oakland,CA,94611,1389000,5,3.0,Oakland,2748,9660,1997,11,505,,Active,,,http://www.redfin.com/CA/Oakland/621-Mountain-Blvd-94611/home/1892283,Bridge MLS,40844035,N,Y,37.8437357,-122.2241067
MLS Listing,,Single Family Residential,2812 Modesto Ave,Oakland,CA,94619,649000,3,2.0,Maxwell Park,1486,4134,1921,11,437,,Active,,,http://www.redfin.com/CA/Oakland/2812-Modesto-Ave-94619/home/710303,Bridge MLS,40844031,N,Y,37.7779287,-122.1944483
MLS Listing,,Single Family Residential,2017 103rd Ave,Oakland,CA,94603,499000,3,2.0,East Oakland,952,4142,1926,11,524,,Active,November-10-2018 02:00 PM,November-10-2018 04:00 PM,http://www.redfin.com/CA/Oakland/2017-103rd-Ave-94603/home/1891942,Bridge MLS,40844028,N,Y,37.7428171,-122.1608344
MLS Listing,,Multi-Family (2-4 Unit),391 Orange St,Oakland,CA,94610,999000,3,3.0,Oakland,2411,3465,,11,414,,Active,,,http://www.redfin.com/CA/Oakland/391-Orange-St-94610/home/525816,Bridge MLS,40844025,N,Y,37.8169461,-122.2553522
MLS Listing,,Townhouse,121 TEMESCAL Cir,Emeryville,CA,94608-2942,649000,2,1.5,Emerybay Village,1176,,1981,11,552,449,Active,,,http://www.redfin.com/CA/Emeryville/121-Temescal-Cir-94608/home/635031,Bridge MLS,40844002,N,Y,37.8356835,-122.2854431
MLS Listing,,Single Family Residential,221 Wildwood Ave,Piedmont,CA,94610,2195000,4,3.0,Piedmont,3279,4400,1924,11,669,,Active,,,http://www.redfin.com/CA/Piedmont/221-Wildwood-Ave-94610/home/645165,Bridge MLS,40843989,N,Y,37.8188244,-122.2371379
MLS Listing,,Single Family Residential,1564 Excelsior Ave,Oakland,CA,94602,639000,2,1.0,Glenview,1081,4200,1919,11,591,,Active,,,http://www.redfin.com/CA/Oakland/1564-Excelsior-Ave-94602/home/535548,Bridge MLS,40843986,N,Y,37.8022287,-122.2240181
MLS Listing,,Single Family Residential,2608 Wallace St,Oakland,CA,94606,599000,2,1.0,San Antonio Park,1130,5394,1907,11,530,,Active,,,http://www.redfin.com/CA/Oakland/2608-Wallace-St-94606/home/2000266,Bridge MLS,40843980,N,Y,37.7956402,-122.2331489
MLS Listing,,Single Family Residential,4399 Terrabella Pl,Oakland,CA,94619,929000,3,2.5,Oakland,1725,3504,1992,12,539,106,Active,,,http://www.redfin.com/CA/Oakland/4399-Terrabella-Pl-94619/home/561352,Bridge MLS,40843930,N,Y,37.795644,-122.178828
MLS Listing,,Single Family Residential,1061 85Th Ave,Oakland,CA,94621,425888,3,1.0,Kinsell Tract,1120,4200,1950,12,380,,Active,,,http://www.redfin.com/CA/Oakland/1061-85th-Ave-94621/home/1366114,Bridge MLS,40843921,N,Y,37.75102,-122.1826536
MLS Listing,,Single Family Residential,2901 61St Ave,Oakland,CA,94605,525000,2,2.0,Mills,1053,4360,1924,12,499,,Active,,,http://www.redfin.com/CA/Oakland/2901-61st-Ave-94605/home/1775911,Bridge MLS,40843919,N,Y,37.7727246,-122.186201
MLS Listing,,Multi-Family (2-4 Unit),822 60th St,Oakland,CA,94608,1250000,5,3.0,Oakland,2634,5400,1910,12,475,,Active,,,http://www.redfin.com/CA/Oakland/822-60th-St-94608/home/1855350,Bridge MLS,40843918,N,Y,37.8452248,-122.271614
MLS Listing,,Single Family Residential,6334 Camden St,Oakland,CA,94605,692450,3,2.0,Camden,1395,4800,1923,12,496,,Active,,,http://www.redfin.com/CA/Oakland/6334-Camden-St-94605/home/563658,Bridge MLS,40843916,N,Y,37.7726422,-122.1819441
MLS Listing,,Single Family Residential,9430 Bancroft Ave,Oakland,CA,94603,429000,3,1.0,Oakland,935,4485,1956,12,459,,Active,,,http://www.redfin.com/CA/Oakland/9430-Bancroft-Ave-94603/home/1547388,Bridge MLS,40843915,N,Y,37.7508074,-122.1631407
MLS Listing,,Multi-Family (2-4 Unit),1854 Church St,Oakland,CA,94621,800000,5,2.0,Oakland,3100,4130,1920,12,258,,Active,,,http://www.redfin.com/CA/Oakland/1854-Church-St-94621/home/147843186,Bridge MLS,40843904,N,Y,37.7640578,-122.1856919
MLS Listing,,Single Family Residential,1262 58th Ave,Oakland,CA,94621,495000,3,2.0,Eastlawn,1338,4000,1912,12,370,,Active,,,http://www.redfin.com/CA/Oakland/1262-58th-Ave-94621/home/1287435,Bridge MLS,40843908,N,Y,37.7640579,-122.2020738
MLS Listing,,Multi-Family (2-4 Unit),1485 5Th St,Oakland,CA,94607,700000,,,Oakland,2212,2830,1908,12,316,,Active,,,http://www.redfin.com/CA/Oakland/1485-5th-St-94607/home/1416225,Bridge MLS,40843889,N,Y,37.8041017,-122.2962456
MLS Listing,,Single Family Residential,1477 5Th St,Oakland,CA,94607,499000,2,1.0,West Oakland,700,2825,1882,12,713,,Active,,,http://www.redfin.com/CA/Oakland/1477-5th-St-94607/home/524892,Bridge MLS,40843887,N,Y,37.80401,-122.296152
MLS Listing,,Single Family Residential,6109 HILLMONT Dr,Oakland,CA,94605,649800,4,2.0,Chevrolet Park,1120,7938,1925,12,580,,Active,,,http://www.redfin.com/CA/Oakland/6109-Hillmont-Dr-94605/home/566565,Bridge MLS,40843880,N,Y,37.7795986,-122.1764897
MLS Listing,,Multi-Family (2-4 Unit),3411 Adeline St,Berkeley,CA,94703,1200000,6,4.0,Berkeley,3696,6203,1940,12,325,,Active,,,http://www.redfin.com/CA/Berkeley/3411-Adeline-St-94703/home/647584,Bridge MLS,40843858,N,Y,37.846421,-122.272032
MLS Listing,,Multi-Family (2-4 Unit),1339 99TH Ave,Oakland,CA,94603,1049900,8,8.0,Oakland,3960,7063,1967,12,265,,Active,,,http://www.redfin.com/CA/Oakland/1339-99th-Ave-94603/home/1655264,Bridge MLS,40843845,N,Y,37.7434307,-122.1710128
MLS Listing,,Single Family Residential,7708 Garfield Ave,Oakland,CA,94605,474000,3,2.0,Eastmont,1140,3800,1926,12,416,,Active,,,http://www.redfin.com/CA/Oakland/7708-Garfield-Ave-94605/home/787153,Bridge MLS,40843839,N,Y,37.764594,-122.1729863
MLS Listing,,Single Family Residential,7305 Hillmont Dr,Oakland,CA,94605,729000,3,2.0,Eastmont Hills,1550,4440,1952,12,470,,Active,,,http://www.redfin.com/CA/Oakland/7305-Hillmont-Dr-94605/home/1995349,Bridge MLS,40843829,N,Y,37.7720135,-122.1689506
MLS Listing,,Single Family Residential,4151 Eastlake Ave,Oakland,CA,94602,859000,4,2.0,Redwood Heights,2637,4160,1940,12,326,,Active,,,http://www.redfin.com/CA/Oakland/4151-Eastlake-Ave-94602/home/1716171,Bridge MLS,40843820,N,Y,37.7996271,-122.1952908
MLS Listing,,Single Family Residential,4030 Elston Ave,Oakland,CA,94602,499000,3,1.0,Glenview,1395,3500,1924,13,358,,Active,,,http://www.redfin.com/CA/Oakland/4030-Elston-Ave-94602/home/1970313,Bridge MLS,40843804,N,Y,37.8050353,-122.2205606
MLS Listing,,Single Family Residential,8017 Earl,Oakland,CA,94605,749000,4,3.0,Oakland Hills,1564,4500,1925,13,479,,Active,,,http://www.redfin.com/CA/Oakland/8017-Earl-St-94605/home/1607781,Bridge MLS,40843802,N,Y,37.7695269,-122.1561108
MLS Listing,,Single Family Residential,3369 Morcom Ave,Oakland,CA,94619,989888,3,2.5,Maxwell  Park,2500,5428,1937,13,396,,Active,,,http://www.redfin.com/CA/Oakland/3369-Morcom-Ave-94619/home/1880958,Bridge MLS,40843799,N,Y,37.782162,-122.1910786
MLS Listing,,Single Family Residential,5811 LAWTON Ave,Oakland,CA,94618,1725000,4,2.0,Rockridge,2202,4240,1911,13,783,,Active,,,http://www.redfin.com/CA/Oakland/5811-Lawton-Ave-94618/home/603348,Bridge MLS,40843792,N,Y,37.8438438,-122.2476414
MLS Listing,,Single Family Residential,5387 Miles Ave,Oakland,CA,94618,1195000,3,1.5,Rockridge,1638,2706,1911,13,730,,Active,,,http://www.redfin.com/CA/Oakland/5387-Miles-Ave-94618/home/536233,Bridge MLS,40843777,N,Y,37.84216,-122.2561942
MLS Listing,,Single Family Residential,59 HILLER Dr,Oakland,CA,94618,2995000,5,4.5,Hiller Highlands,5416,38178,1993,13,553,15,Active,,,http://www.redfin.com/CA/Oakland/59-Hiller-Dr-94618/home/1608555,Bridge MLS,40843761,N,Y,37.8540047,-122.2317528
MLS Listing,,Single Family Residential,3927 Burckhalter Ave,Oakland,CA,94605,799000,3,2.0,Upper Millsmont,1346,7200,1920,13,594,,Active,,,http://www.redfin.com/CA/Oakland/3927-Burckhalter-Ave-94605/home/577367,Bridge MLS,40843718,N,Y,37.7748697,-122.1682965
MLS Listing,,Townhouse,1520 Adeline St,Oakland,CA,94607,629000,3,2.5,Oakland West,1300,1442,1996,13,484,145,Active,,,http://www.redfin.com/CA/Oakland/1520-Adeline-St-94607/home/525244,Bridge MLS,40843706,N,Y,37.8106364,-122.285481
MLS Listing,,Single Family Residential,7268 Buckingham Blvd,Berkeley,CA,94705,995000,3,2.5,Claremont Hills,2305,4200,1995,13,432,,Active,,,http://www.redfin.com/CA/Berkeley/7268-Buckingham-Blvd-94705/home/788181,Bridge MLS,40843700,N,Y,37.8606439,-122.2210482
MLS Listing,,Single Family Residential,2907 Filbert St,Oakland,CA,94608,799000,3,2.5,Oakland West,1726,3150,2007,13,463,,Active,,,http://www.redfin.com/CA/Oakland/2907-Filbert-St-94608/home/22727429,Bridge MLS,40843674,N,Y,37.820548,-122.279044
MLS Listing,,Single Family Residential,6004 Monadnock Way,Oakland,CA,94605,548000,2,1.0,Oakland,1130,5000,1923,13,485,,Active,,,http://www.redfin.com/CA/Oakland/6004-Monadnock-Way-94605/home/562423,San Francisco MLS,478036,N,Y,37.776588,-122.1822102
MLS Listing,,Single Family Residential,375 60th St,Oakland,CA,94618,1095000,3,1.5,Rockridge,1468,5950,1915,13,746,,Active,,,http://www.redfin.com/CA/Oakland/375-60th-St-94618/home/531241,Bridge MLS,40843658,N,Y,37.8467515,-122.2552414
MLS Listing,,Single Family Residential,1730 11th St,Oakland,CA,94607,799000,3,3.5,West Oakland,2102,3206,2018,13,380,,Active,,,http://www.redfin.com/CA/Oakland/1730-11th-St-94607/home/147810703,Bridge MLS,40843632,N,Y,37.811034,-122.2988555
MLS Listing,,Single Family Residential,2939 61st Ave,Oakland,CA,94605,549000,3,1.0,Mills Gardens,1111,4360,1924,14,494,,Active,,,http://www.redfin.com/CA/Oakland/2939-61st-Ave-94605/home/2036600,Bridge MLS,40843619,N,Y,37.7732224,-122.1856689
MLS Listing,,Single Family Residential,6682 Colton Blvd,Oakland,CA,94611,1195000,4,3.0,Montclair,2531,6340,1977,14,472,,Active,November-11-2018 02:00 PM,November-11-2018 04:30 PM,http://www.redfin.com/CA/Oakland/6682-Colton-Blvd-94611/home/1357566,Bridge MLS,40843583,N,Y,37.833143,-122.20115
MLS Listing,,Single Family Residential,816 22nd St,Oakland,CA,94607,349000,2,2.0,Oakland,,2000,1900,14,,,Active,,,http://www.redfin.com/CA/Oakland/816-22nd-St-94607/home/1076022,San Francisco MLS,478005,N,Y,37.8131739,-122.2766094
MLS Listing,,Single Family Residential,1275 61st Ave,Oakland,CA,94621,425000,3,1.0,Eastlawn,816,4000,1925,14,521,,Active,,,http://www.redfin.com/CA/Oakland/1275-61st-Ave-94621/home/2036686,Bridge MLS,40843567,N,Y,37.7628906,-122.2003982
MLS Listing,,Multi-Family (2-4 Unit),2252 Courtland Ave,Oakland,CA,94601,729500,4,3.0,Oakland,1972,3060,1967,14,370,,Active,,,http://www.redfin.com/CA/Oakland/2252-Courtland-Ave-94601/home/559521,Bridge MLS,40843521,N,Y,37.7780289,-122.206671
MLS Listing,,Single Family Residential,2000 24th Ave,Oakland,CA,94601,950000,5,1.5,Foothill,2592,3990,1922,15,367,,Active,November-10-2018 02:00 PM,November-10-2018 04:00 PM,http://www.redfin.com/CA/Oakland/2000-24th-Ave-94601/home/533181,Bridge MLS,40843507,N,Y,37.7866616,-122.2300906
MLS Listing,,Single Family Residential,2149 104th Ave,Oakland,CA,94603,468888,3,2.0,Alameda County,1150,2875,1957,17,408,,Active,,,http://www.redfin.com/CA/Oakland/2149-104th-Ave-94603/home/910507,BAREIS,21827378,N,Y,37.742775,-122.158907
MLS Listing,,Single Family Residential,4001 Maybelle Ave,Oakland,CA,94619,899000,4,2.5,Redwood Heights,1855,8960,1946,17,485,,Active,,,http://www.redfin.com/CA/Oakland/4001-Maybelle-Ave-94619/home/547075,Bridge MLS,40843381,N,Y,37.7920237,-122.1912559
MLS Listing,,Single Family Residential,9902 C St,Oakland,CA,94603,349950,3,2.0,Oakland,1434,2970,1952,18,244,,Active,,,http://www.redfin.com/CA/Oakland/9902-C-St-94603/home/1257143,Bridge MLS,40843340,N,Y,37.7415949,-122.1739176
MLS Listing,,Multi-Family (2-4 Unit),3229 Elm St,Oakland,CA,94609,1490000,8,4.0,Oakland,3093,4370,1896,18,482,,Active,,,http://www.redfin.com/CA/Oakland/3229-Elm-St-94609/home/147712932,Bridge MLS,40843324,N,Y,37.8213498,-122.2656767
MLS Listing,,Single Family Residential,908 Everett Ave,Oakland,CA,94602,1200000,4,2.0,Glenview,2107,6286,1953,18,570,,Active,,,http://www.redfin.com/CA/Oakland/908-Everett-Ave-94602/home/1891399,Bridge MLS,40843281,N,Y,37.8096733,-122.2228213
MLS Listing,,Multi-Family (2-4 Unit),4226 Oakmore Rd,Oakland,CA,94602,1375000,4,3.0,Oakland,3698,3698,1938,18,372,,Active,,,http://www.redfin.com/CA/Oakland/4226-Oakmore-Rd-94602/home/1398716,Bridge MLS,40843277,N,Y,37.8109424,-122.2123153
MLS Listing,,Single Family Residential,83 Echo Ave,Oakland,CA,94611,967500,2,2.0,Piedmont Avenue,1600,4380,2016,18,605,,Active,,,http://www.redfin.com/CA/Oakland/83-Echo-Ave-94611/home/147711537,Bridge MLS,40843258,N,Y,37.8274438,-122.2484019
MLS Listing,,Single Family Residential,81 Echo Ave,Oakland,CA,94611,967500,3,2.0,Piedmont Avenue,1800,4380,1920,18,538,,Active,,,http://www.redfin.com/CA/Oakland/81-Echo-Ave-94611/home/1936180,Bridge MLS,40843256,N,Y,37.8274897,-122.2483948
MLS Listing,,Multi-Family (2-4 Unit),2950 Telegraph Ave,Oakland,CA,94609,995000,4,3.0,Oakland,2984,3122,,18,333,,Active,,,http://www.redfin.com/CA/Oakland/2950-Telegraph-Ave-94609/home/145085969,Bridge MLS,40843238,N,Y,37.8189924,-122.2668398
MLS Listing,,Single Family Residential,5826 Avenal Ave,Oakland,CA,94605,398000,2,1.0,Oakland,1032,1848,1925,18,386,,Active,,,http://www.redfin.com/CA/Oakland/5826-Avenal-Ave-94605/home/567630,Bridge MLS,40843232,N,Y,37.7706585,-122.1924006
MLS Listing,,Single Family Residential,1065 57th St,Oakland,CA,94608,795000,2,1.5,Nobe,1062,4500,1905,18,749,,Active,,,http://www.redfin.com/CA/Oakland/1065-57th-St-94608/home/2040188,Bridge MLS,40843210,N,Y,37.8405267,-122.2810066
MLS Listing,,Single Family Residential,4527 Pampas Ave,Oakland,CA,94619,649000,2,1.0,Upper Laurel,940,3240,1926,19,690,,Active,,,http://www.redfin.com/CA/Oakland/4527-Pampas-Ave-94619/home/1667178,Bridge MLS,40843178,N,Y,37.7872404,-122.1892163
MLS Listing,,Single Family Residential,1649 34Th Ave,Oakland,CA,94601,669900,5,2.0,Fruitvale Area,2242,4000,1915,19,299,,Active,,,http://www.redfin.com/CA/Oakland/1649-34th-Ave-94601/home/1913896,Bridge MLS,40843164,N,Y,37.7805993,-122.222112
MLS Listing,,Single Family Residential,2650 38Th Ave,Oakland,CA,94619,374900,2,1.0,Oakland,795,2500,1912,19,472,,Active,,,http://www.redfin.com/CA/Oakland/2650-38th-Ave-94619/home/549407,Bridge MLS,40843162,N,Y,37.7857538,-122.2061642
MLS Listing,,Multi-Family (2-4 Unit),6915 KRAUSE Ave,Oakland,CA,94605,527000,4,2.0,Oakland,1808,6042,1950,19,291,,Active,,,http://www.redfin.com/CA/Oakland/6915-Krause-Ave-94605/home/1930408,Bridge MLS,40843139,N,Y,37.7665862,-122.1805251
MLS Listing,,Single Family Residential,2010 Filbert St,Oakland,CA,94607,719000,3,2.0,Oakland,1285,3250,1938,19,560,,Active,,,http://www.redfin.com/CA/Oakland/2010-Filbert-St-94607/home/1854772,San Francisco MLS,477818,N,Y,37.8130809,-122.28108
MLS Listing,,Single Family Residential,5626 Picardy Dr N,Oakland,CA,94605,699000,2,1.0,Normandy Gardens,1150,3534,1926,19,608,,Active,,,http://www.redfin.com/CA/Oakland/5626-Picardy-Dr-N-94605/home/2017528,Bridge MLS,40843088,N,Y,37.7752705,-122.189837
MLS Listing,,Townhouse,4612 Redwood Rd,Oakland,CA,94619,875000,3,2.5,Leona Park Villa,2102,1732,1996,19,416,425,Active,,,http://www.redfin.com/CA/Oakland/4612-Redwood-Rd-94619/home/1456833,Bridge MLS,40843071,N,Y,37.794011,-122.176079
MLS Listing,,Single Family Residential,3550 Seminary Ave,Oakland,CA,94605,649000,3,1.0,Alameda County,1324,4940,1940,19,490,,Active,,,http://www.redfin.com/CA/Oakland/3550-Seminary-Ave-94605/home/563096,BAREIS,21827197,N,Y,37.7791083,-122.1807912
MLS Listing,,Multi-Family (2-4 Unit),1912 Castro St,Oakland,CA,94612,1195000,5,3.5,Oakland,2572,2457,1893,19,465,,Active,,,http://www.redfin.com/CA/Oakland/1912-Castro-St-94612/home/1616435,Bridge MLS,40842996,N,Y,37.8101949,-122.27466
MLS Listing,,Single Family Residential,1227 Alvarado Rd,Berkeley,CA,94705,1539000,3,2.5,Claremont Knolls,2904,8880,1982,20,530,,Active,,,http://www.redfin.com/CA/Berkeley/1227-Alvarado-Rd-94705/home/629978,Bridge MLS,40842956,N,Y,37.8629924,-122.2321295
MLS Listing,,Multi-Family (2-4 Unit),2022 E 23rd St,Oakland,CA,94606,625000,4,2.0,Alameda County,1690,5388,1900,20,370,,Active,,,http://www.redfin.com/CA/Oakland/2022-E-23rd-St-94606/home/1888386,BAREIS,21827146,N,Y,37.7924323,-122.2332819
MLS Listing,,Single Family Residential,2718 Pleasant St,Oakland,CA,94602,499000,2,1.0,Upper Fruitvale,896,6148,1924,20,557,,Active,,,http://www.redfin.com/CA/Oakland/2718-Pleasant-St-94602/home/1981374,Bridge MLS,40842897,N,Y,37.7968789,-122.2154184
MLS Listing,,Multi-Family (2-4 Unit),2019 E 20th,Oakland,CA,94606-4285,1280000,8,5.0,San Antonio Park,3224,3500,1905,20,397,,Active,,,http://www.redfin.com/CA/Oakland/2019-E-20th-St-94606/unit-C/home/1842844,Bridge MLS,40842711,N,Y,37.7895876,-122.2357639
MLS Listing,,Single Family Residential,9637 E St,Oakland,CA,94603,449000,3,1.0,Oakland,1097,5600,1945,20,409,,Active,,,http://www.redfin.com/CA/Oakland/9637-E-St-94603/home/587156,Bridge MLS,40842882,N,Y,37.7424782,-122.1775097
MLS Listing,,Single Family Residential,5567 Thomas Ave,Oakland,CA,94618,1795000,3,2.0,Rockridge,2228,4000,1919,20,806,,Active,,,http://www.redfin.com/CA/Oakland/5567-Thomas-Ave-94618/home/1517320,Bridge MLS,40842843,N,Y,37.8408042,-122.2475971
MLS Listing,,Multi-Family (5+ Unit),4328 Howe St,Oakland,CA,94611,2888000,11,,Oakland,6668,6291,1959,20,433,,Active,November-7-2018 12:00 PM,November-7-2018 01:00 PM,http://www.redfin.com/CA/Oakland/4328-Howe-St-94611/home/1234663,San Francisco MLS,477739,N,Y,37.8297597,-122.2489488
MLS Listing,,Single Family Residential,590 Gravatt Dr,Berkeley,CA,94705,2795000,4,3.5,Claremont Hills,4020,8986,2018,20,695,,Active,,,http://www.redfin.com/CA/Berkeley/590-Gravatt-Dr-94705/home/147661858,Bridge MLS,40842819,N,Y,37.8602444,-122.2316442
MLS Listing,,Single Family Residential,851 Santa Ray Ave,Oakland,CA,94610,1995000,5,3.5,Crocker Hghlands,3501,5200,1922,20,570,,Active,,,http://www.redfin.com/CA/Oakland/851-Santa-Ray-Ave-94610/home/1726500,Bridge MLS,40842790,N,Y,37.8124903,-122.2307998
MLS Listing,,Single Family Residential,2828 55th Ave,Oakland,CA,94605,649000,3,2.0,Maxwell Park,1551,4720,1926,21,418,,Active,,,http://www.redfin.com/CA/Oakland/2828-55th-Ave-94605/home/1809353,Bridge MLS,40842744,N,Y,37.7755058,-122.1913889
MLS Listing,,Single Family Residential,7601 Rudsdale St,Oakland,CA,94621,525000,3,2.0,East Oakland,1200,4650,1942,21,438,,Active,,,http://www.redfin.com/CA/Oakland/7601-Rudsdale-St-94621/home/581070,Bridge MLS,40842705,N,Y,37.75619,-122.187379
MLS Listing,,Multi-Family (2-4 Unit),1084 30th St,Oakland,CA,94608,849000,7,4.0,West Oakland,3200,3900,1895,22,265,,Active,,,http://www.redfin.com/CA/Oakland/1084-30th-St-94608/home/1617620,Bridge MLS,40842637,N,Y,37.8219247,-122.2803338
MLS Listing,,Single Family Residential,9429 D St,Oakland,CA,94603,544900,3,2.0,Alameda,1184,5000,1936,22,460,,Active,,,http://www.redfin.com/CA/Oakland/9429-D-St-94603/home/588645,Bridge MLS,40842629,N,Y,37.7441909,-122.1776427
MLS Listing,,Single Family Residential,1209 34Th St,Oakland,CA,94608,498000,2,1.5,West Oakland,1250,3300,1895,22,398,,Active,,,http://www.redfin.com/CA/Oakland/1209-34th-St-94608/home/569718,Bridge MLS,40842609,N,Y,37.8256139,-122.281804
MLS Listing,,Single Family Residential,,Oakland,CA,94606,599900,3,1.0,San Antonio Park,1005,2520,1908,22,597,,Active,,,http://www.redfin.com/CA/Oakland/Undisclosed-address-94606/home/532759,Bridge MLS,40842584,N,Y,37.7889486,-122.2394426
MLS Listing,,Townhouse,9722 Hillgrade,Oakland,CA,94603-0000,450000,3,1.5,East Oakland,1400,,1980,22,321,300,Active,,,http://www.redfin.com/CA/Oakland/9722-Hillgrade-Ct-94603/home/1608027,Bridge MLS,40842552,N,Y,37.7503079,-122.159396
MLS Listing,,Single Family Residential,7607 Hillside St,Oakland,CA,94605-2823,440000,2,1.0,Eastmont,888,2470,1926,24,495,,Active,,,http://www.redfin.com/CA/Oakland/7607-Hillside-St-94605/home/773009,Bridge MLS,40842481,N,Y,37.766352,-122.1717446
MLS Listing,,Single Family Residential,8922 Burr St,Oakland,CA,94605,649000,4,3.0,Toler Heights,1985,7500,1961,24,327,,Active,,,http://www.redfin.com/CA/Oakland/8922-Burr-St-94605/home/631539,Bridge MLS,40842470,N,Y,37.7568273,-122.1589273
MLS Listing,,Multi-Family (2-4 Unit),2000 E 22nd St,Oakland,CA,94606-4119,749000,4,3.0,Oakland,1635,3500,1895,25,458,,Active,,,http://www.redfin.com/CA/Oakland/2000-E-22nd-St-94606/home/1543050,Bridge MLS,40842425,N,Y,37.7917619,-122.234257
MLS Listing,,Single Family Residential,2833 Martin Luther King Jr Way,Oakland,CA,94609,549000,3,2.0,Nobe,1448,1725,1906,25,379,,Active,,,http://www.redfin.com/CA/Oakland/2833-Martin-Luther-King-Jr-Way-94609/home/1815722,Bridge MLS,40842421,N,Y,37.8185869,-122.2715143
MLS Listing,,Single Family Residential,1025 18Th St,Oakland,CA,94607,799000,4,2.5,West Oakland,1412,3880,1908,25,566,,Active,,,http://www.redfin.com/CA/Oakland/1025-18th-St-94607/home/1463993,Bridge MLS,40842417,N,Y,37.8116631,-122.2827344
MLS Listing,,Single Family Residential,2456 Rampart St,Oakland,CA,94602-3037,735000,2,1.0,Lincoln Highland,812,4264,1943,25,905,,Active,,,http://www.redfin.com/CA/Oakland/2456-Rampart-St-94602/home/1563418,Bridge MLS,40842348,N,Y,37.8047745,-122.2071284
MLS Listing,,Single Family Residential,6180 Buena Vista Ave,Oakland,CA,94618,1595000,4,3.0,Upper Rockridge,2400,9150,1988,25,665,,Active,,,http://www.redfin.com/CA/Oakland/6180-Buena-Vista-Ave-94618/home/945268,Bridge MLS,40842337,N,Y,37.844085,-122.231376
MLS Listing,,Single Family Residential,1564 Bridge Ave,Oakland,CA,94601,499000,2,2.0,Fruitvale,904,3200,1912,25,552,,Active,,,http://www.redfin.com/CA/Oakland/1564-Bridge-Ave-94601/home/528611,Bridge MLS,40842254,N,Y,37.77787,-122.2194524
MLS Listing,,Single Family Residential,3302 ADELINE St,OAKLAND,CA,94608,679999,3,2.0,OAKLAND,1270,3810,1902,26,535,,Active,,,http://www.redfin.com/CA/Oakland/3302-Adeline-St-94608/home/676316,MLSListings,ML81727354,N,Y,37.8246057,-122.2804749
MLS Listing,,Multi-Family (2-4 Unit),3105 Telegraph Ave,Berkeley,CA,94705,1895000,7,4.0,Berkeley,2918,3597,1918,26,649,,Active,,,http://www.redfin.com/CA/Berkeley/3105-Telegraph-Ave-94705/home/1414231,Bridge MLS,40842164,N,Y,37.853476,-122.259678
MLS Listing,,Single Family Residential,2574 63rd Ave,Oakland,CA,94605,380000,2,1.0,Foothill Park,1187,5440,1924,26,320,,Active,,,http://www.redfin.com/CA/Oakland/2574-63rd-Ave-94605/home/1341788,Bridge MLS,40842152,N,Y,37.7692617,-122.1875313
MLS Listing,,Multi-Family (2-4 Unit),219 Foothill,Oakland,CA,94606-1722,885000,,,Oakland,3112,5000,1922,26,284,,Active,,,http://www.redfin.com/CA/Oakland/219-Foothill-Blvd-94606/home/536294,Bridge MLS,40842118,N,Y,37.7988459,-122.2542444
MLS Listing,,Single Family Residential,7455 Woodrow Dr,Oakland,CA,94611,1249000,3,2.5,Shepard Canyon,2934,6672,2000,26,426,,Active,,,http://www.redfin.com/CA/Oakland/7455-Woodrow-Dr-94611/home/1590449,Bridge MLS,40842114,N,Y,37.8341568,-122.1932512
MLS Listing,,Multi-Family (2-4 Unit),515 Sycamore St,Oakland,CA,94612,1195000,6,4.0,Oakland,3165,3999,1901,26,378,,Active,,,http://www.redfin.com/CA/Oakland/515-Sycamore-St-94612/home/525514,Bridge MLS,40842106,N,Y,37.8149877,-122.2688226
MLS Listing,,Single Family Residential,3214 NE Sylvan Ave,Oakland,CA,94602,699000,3,1.0,Laurel Heights,1313,4840,1926,26,532,,Active,,,http://www.redfin.com/CA/Oakland/3214-Sylvan-Ave-94602/home/528534,Bridge MLS,40842088,N,Y,37.799345,-122.1986604
MLS Listing,,Single Family Residential,6736 MacArthur Blvd,Oakland,CA,94605,524888,4,2.0,Oakland,1410,2894,1915,26,372,,Active,,,http://www.redfin.com/CA/Oakland/6736-MacArthur-Blvd-94605/home/17188182,Bridge MLS,40842084,N,Y,37.7714342,-122.1763536
MLS Listing,,Single Family Residential,4901 Lawton Ave,Oakland,CA,94609,1799000,3,3.0,Temescal,2424,2582,2003,27,742,,Active,,,http://www.redfin.com/CA/Oakland/4901-Lawton-Ave-94609/home/124624467,Bridge MLS,40842033,N,Y,37.8352033,-122.2571408
MLS Listing,,Single Family Residential,1094 70Th Ave,Oakland,CA,94621,299000,2,1.0,E Oakland,862,2500,1926,27,347,,Active,,,http://www.redfin.com/CA/Oakland/1094-70th-Ave-94621/home/813239,Bridge MLS,40842027,N,Y,37.758274,-122.1923533
MLS Listing,,Single Family Residential,997 55Th St,Oakland,CA,94608,610000,2,1.0,N Oakland,1048,3300,1922,27,582,,Active,,,http://www.redfin.com/CA/Oakland/997-55th-St-94608/home/1756671,Bridge MLS,40841985,N,Y,37.8388257,-122.2781712
MLS Listing,,Single Family Residential,4705 Fairfax Ave,OAKLAND,CA,94601,549000,3,1.0,OAKLAND,783,5000,1911,27,701,,Active,,,http://www.redfin.com/CA/Oakland/4705-Fairfax-Ave-94601/home/1910824,MLSListings,ML81727053,N,Y,37.7793335,-122.2045127
MLS Listing,,Single Family Residential,6915 Lockwood St,Oakland,CA,94621,449000,2,1.0,Oakland,1067,3280,1922,27,421,,Active,,,http://www.redfin.com/CA/Oakland/6915-Lockwood-St-94621/home/1330219,Bridge MLS,40841946,N,Y,37.764806,-122.1831857
MLS Listing,,Multi-Family (2-4 Unit),933 Wood St,Oakland,CA,94607,699000,6,2.0,Oakland,1896,2272,1895,28,369,,Active,,,http://www.redfin.com/CA/Oakland/933-Wood-St-94607/home/770782,Bridge MLS,40841816,N,Y,37.81024,-122.300667
MLS Listing,,Multi-Family (2-4 Unit),1150-1152 87th Ave,OAKLAND,CA,94621,699000,5,,OAKLAND,1736,5400,1922,28,403,,Active,,,http://www.redfin.com/CA/Oakland/1150-87th-Ave-94621/home/1041507,MLSListings,ML81726930,N,Y,37.749833,-122.1798156
MLS Listing,,Single Family Residential,843 40th St,Oakland,CA,94608,949000,5,2.5,North Oakland,2011,4200,1932,28,472,,Active,,,http://www.redfin.com/CA/Oakland/843-40th-St-94608/home/527574,Bridge MLS,40841748,N,Y,37.830197,-122.2725444
MLS Listing,,Single Family Residential,4021 Whittle Ave,Oakland,CA,94602,799999,2,2.0,Oakland,1055,5250,1940,28,758,,Active,,,http://www.redfin.com/CA/Oakland/4021-Whittle-Ave-94602/home/1924997,Bridge MLS,40841742,N,Y,37.8058928,-122.2093562
MLS Listing,,Single Family Residential,7814 Plymouth St,Oakland,CA,94621,448000,2,1.0,Eastmont,1036,3150,1928,28,432,,Active,,,http://www.redfin.com/CA/Oakland/7814-Plymouth-St-94621/home/575481,Bridge MLS,40841735,N,Y,37.7607721,-122.1778201
MLS Listing,,Single Family Residential,3901 35th Ave,Oakland,CA,94619,595000,3,2.0,Laurel,1233,2795,1987,29,483,,Active,,,http://www.redfin.com/CA/Oakland/3901-35th-Ave-94619/home/541051,Bridge MLS,40841670,N,Y,37.796508,-122.19647
MLS Listing,,Single Family Residential,2011 82nd Ave,Oakland,CA,95461,515000,3,1.5,Alameda County,1850,4600,1945,29,278,,Active,,,http://www.redfin.com/CA/Oakland/2011-82nd-Ave-94621/home/1881977,BAREIS,21826331,N,Y,37.7594833,-122.1720107
MLS Listing,,Single Family Residential,70 Somerset Rd,Piedmont,CA,94611,2280000,5,5.0,Piedmont,4487,14760,1956,29,508,,Active,November-11-2018 02:00 PM,November-11-2018 04:30 PM,http://www.redfin.com/CA/Piedmont/70-Somerset-Rd-94611/home/1343211,Bridge MLS,40841639,N,Y,37.8210806,-122.2146205
MLS Listing,,Single Family Residential,7107 Holly St,Oakland,CA,94621,305000,2,1.0,East Oakland,1000,4851,1922,30,305,,Active,,,http://www.redfin.com/CA/Oakland/7107-Holly-St-94621/home/1702676,Bridge MLS,40841620,N,Y,37.762989,-122.184255
MLS Listing,,Single Family Residential,10318 Voltaire Ave,Oakland,CA,94603,549000,4,2.0,Oakland,1266,3125,1920,30,434,,Active,,,http://www.redfin.com/CA/Oakland/10318-Voltaire-Ave-94603/home/1744886,San Francisco MLS,477294,N,Y,37.7439789,-122.1554233
MLS Listing,,Single Family Residential,4526 Merrill Ave,Oakland,CA,94619,649000,2,1.0,Oakland,1146,2856,1915,30,566,,Active,November-11-2018 02:00 PM,November-11-2018 04:00 PM,http://www.redfin.com/CA/Oakland/4526-Merrill-Ave-94619/home/1833129,San Francisco MLS,477292,N,Y,37.7864011,-122.1905021
MLS Listing,,Single Family Residential,8117 Skyline Blvd,Oakland,CA,94611,868000,3,2.5,Montclair,2081,6282,1977,30,417,,Active,,,http://www.redfin.com/CA/Oakland/8117-Skyline-Blvd-94611/home/1952995,Bridge MLS,40841606,N,Y,37.8363526,-122.1863562
MLS Listing,,Single Family Residential,4649 Fieldbrook Rd,Oakland,CA,94619,749000,3,1.5,Crestmont,1752,6000,1948,31,428,,Active,,,http://www.redfin.com/CA/Oakland/4649-Fieldbrook-Rd-94619/home/1962943,Bridge MLS,40841558,N,Y,37.7952879,-122.1807912
MLS Listing,,Single Family Residential,6480 Farallon Way,Oakland,CA,94611,865000,3,2.0,Montclair,1746,8200,1974,31,495,,Active,,,http://www.redfin.com/CA/Oakland/6480-Farallon-Way-94611/home/1533797,Bridge MLS,40841266,N,Y,37.8456601,-122.2128029
MLS Listing,,Single Family Residential,2427 23Rd Ave,Oakland,CA,94606,669888,3,1.5,Highland,1356,3400,1925,32,494,,Active,,,http://www.redfin.com/CA/Oakland/2427-23rd-Ave-94606/home/1040532,Bridge MLS,40841524,N,Y,37.7913396,-122.2288052
MLS Listing,,Single Family Residential,4434 Penniman Ave,Oakland,CA,94619,568000,2,1.5,Maxwell  Park,722,5586,1916,32,787,,Active,,,http://www.redfin.com/CA/Oakland/4434-Penniman-Ave-94619/home/561399,Bridge MLS,40841501,N,Y,37.7825789,-122.1988821
MLS Listing,,Multi-Family (2-4 Unit),610 Oakland Ave,Oakland,CA,94611,1200000,,,Oakland,2413,4166,1909,32,497,,Active,,,http://www.redfin.com/CA/Oakland/610-Oakland-Ave-94611/home/785019,Bridge MLS,40841427,N,Y,37.8203617,-122.2508485
MLS Listing,,Single Family Residential,4122 Redding St,Oakland,CA,94619,698000,2,2.0,Laurel Dist,1201,3185,2004,32,581,,Active,,,http://www.redfin.com/CA/Oakland/4122-Redding-St-94619/home/22727667,Bridge MLS,40841406,N,Y,37.7890265,-122.197419
MLS Listing,,Single Family Residential,4633 Davenport Ave,Oakland,CA,94619,1095000,4,2.0,Redwood Heights,2318,12690,1935,32,472,,Active,,,http://www.redfin.com/CA/Oakland/4633-Davenport-Ave-94619/home/1999645,Bridge MLS,40841386,N,Y,37.7884656,-122.1838509
MLS Listing,,Single Family Residential,2016 23Rd Ave,Oakland,CA,94606,559000,3,2.5,San Antonio,1594,4393,1900,33,351,,Active,,,http://www.redfin.com/CA/Oakland/2016-23rd-Ave-94606/home/771919,Bridge MLS,40841351,N,Y,37.787842,-122.231707
MLS Listing,,Multi-Family (2-4 Unit),3229 Logan St,Oakland,CA,94601,550000,3,2.0,Oakland,1095,2620,1910,33,502,,Active,,,http://www.redfin.com/CA/Oakland/3229-Logan-St-94601/home/1952291,Bridge MLS,40841348,N,Y,37.7872496,-122.2204719
MLS Listing,,Multi-Family (2-4 Unit),404 Euclid Ave,Oakland,CA,94610,899000,4,2.0,Adams Point,2200,2952,1917,33,409,,Active,,,http://www.redfin.com/CA/Oakland/404-Euclid-Ave-94610/home/535967,Bridge MLS,40841339,N,Y,37.8105463,-122.2511867
MLS Listing,,Townhouse,605 Palisade Dr,Oakland,CA,94607,699000,2,2.5,Oakland West,1265,,2009,33,553,225,Active,,,http://www.redfin.com/CA/Oakland/605-Palisade-Dr-94607/home/22961288,Bridge MLS,40841336,N,Y,37.813026,-122.299402
MLS Listing,,Single Family Residential,2248 E 25th St,Oakland,CA,94606,810000,4,2.0,Oakland,1336,4200,,33,606,,Active,,,http://www.redfin.com/CA/Oakland/2248-E-25th-St-94606/home/534437,San Francisco MLS,477190,N,Y,37.7919224,-122.2288496
MLS Listing,,Single Family Residential,3212 Brookdale Ave,Oakland,CA,94602,615000,3,2.0,Oakland,1398,5775,1919,33,440,,Active,,,http://www.redfin.com/CA/Oakland/3212-Brookdale-Ave-94602/home/834776,Bridge MLS,40841251,N,Y,37.7912408,-122.2131022
MLS Listing,,Single Family Residential,3143 California St,Oakland,CA,94602,698000,2,1.0,Oakland,1210,3400,1927,33,577,,Active,,,http://www.redfin.com/CA/Oakland/3143-California-St-94602/home/1946055,Bridge MLS,40841233,N,Y,37.7978183,-122.2006112
MLS Listing,,Single Family Residential,4008 Park Blvd,Oakland,CA,94602,899000,2,1.0,Glenview,1407,2625,1924,33,639,,Active,,,http://www.redfin.com/CA/Oakland/4008-Park-Blvd-94602/home/2000290,Bridge MLS,40841177,N,Y,37.8057046,-122.2255695
MLS Listing,,Multi-Family (2-4 Unit),474 Clifton St,Oakland,CA,94618,2100000,9,5.0,Rockridge,3260,5629,1967,34,644,,Active,,,http://www.redfin.com/CA/Oakland/474-Clifton-St-94618/home/1570738,Bridge MLS,40841162,N,Y,37.8408532,-122.2577894
MLS Listing,,Single Family Residential,3240 Nicol Ave,Oakland,CA,94602,649888,2,1.0,Laurel/Fruitvale,885,3745,1914,34,734,,Active,,,http://www.redfin.com/CA/Oakland/3240-Nicol-Ave-94602/home/1628199,Bridge MLS,40841148,N,Y,37.7916492,-122.2119163
MLS Listing,,Single Family Residential,3113 Linden St,Oakland,CA,94608,995000,3,2.0,West Oakland,982,6600,1893,34,1013,,Active,,,http://www.redfin.com/CA/Oakland/3113-Linden-St-94608/home/1799711,Bridge MLS,40841140,N,Y,37.8227613,-122.2793231
MLS Listing,,Multi-Family (5+ Unit),,Oakland,CA,94610,1595000,9,7.5,Oakland,3752,4900,1926,34,425,,Active,,,http://www.redfin.com/CA/Oakland/Undisclosed-address-94610/home/2000340,Bridge MLS,40841132,N,Y,37.8071385,-122.2425892
MLS Listing,,Multi-Family (2-4 Unit),3117 Minna Ave,Oakland,CA,94619,560000,,,Allendale,1955,4133,1924,34,286,,Active,,,http://www.redfin.com/CA/Oakland/3117-Minna-Ave-94619/home/1496788,Bridge MLS,40841110,N,Y,37.7871289,-122.2018083
MLS Listing,,Single Family Residential,1421 67Th Ave,Oakland,CA,94621,599000,5,3.0,Havenscourt,3182,4902,1925,34,188,,Active,,,http://www.redfin.com/CA/Oakland/1421-67th-Ave-94621/home/1798732,Bridge MLS,40841098,N,Y,37.7620183,-122.1914776
MLS Listing,,Multi-Family (2-4 Unit),2460 Park Blvd,Oakland,CA,94606,1100000,6,6.0,Oakland,4104,5275,1952,34,268,,Active,,,http://www.redfin.com/CA/Oakland/2460-Park-Blvd-94606/home/1563424,Bridge MLS,40841094,N,Y,37.8020108,-122.2425449
MLS Listing,,Multi-Family (2-4 Unit),5247 Miles Ave,Oakland,CA,94618,1595000,5,4.0,Oakland,2995,9623,1950,34,533,,Active,,,http://www.redfin.com/CA/Oakland/5247-Miles-Ave-94618/home/1994718,Bridge MLS,40841089,N,Y,37.8399629,-122.2581439
MLS Listing,,Single Family Residential,2675 Monterey Blvd,Oakland,CA,94602,949000,4,2.0,Oakmore,1958,7620,1951,34,485,,Active,November-11-2018 02:00 PM,November-11-2018 04:30 PM,http://www.redfin.com/CA/Oakland/2675-Monterey-Blvd-94602/home/545385,Bridge MLS,40841009,N,Y,37.8137652,-122.2017196
MLS Listing,,Townhouse,1861 Grand View Dr,Oakland,CA,94618,925000,3,3.0,Hiller Highlands,2055,2128,1995,34,450,267,Active,,,http://www.redfin.com/CA/Oakland/1861-Grand-View-Dr-94618/home/1946996,Bridge MLS,40840998,N,Y,37.8564059,-122.2275594
MLS Listing,,Multi-Family (2-4 Unit),2826 Havenscourt,Oakland,CA,94605,788000,4,2.0,Oakland,2992,3800,1928,35,263,,Active,,,http://www.redfin.com/CA/Oakland/2826-Havenscourt-Blvd-94605/home/146450553,Bridge MLS,40840938,N,Y,37.7701266,-122.1816337
MLS Listing,,Single Family Residential,2534 14Th Ave,Oakland,CA,94606,499000,2,1.0,Highland Park,1547,3700,1919,35,323,,Active,,,http://www.redfin.com/CA/Oakland/2534-14th-Ave-94606/home/1952157,Bridge MLS,40840871,N,Y,37.7958643,-122.2346116
MLS Listing,,Single Family Residential,3005 Courtland Ave,Oakland,CA,94619,589000,2,1.0,Alameda County,986,4092,1947,35,597,,Active,,,http://www.redfin.com/CA/Oakland/3005-Courtland-Ave-94619/home/922072,BAREIS,21825547,N,Y,37.7833523,-122.1997688
MLS Listing,,Multi-Family (2-4 Unit),5432 Foothill Blvd,Oakland,CA,94601,660000,5,3.0,Melrose Heights,2700,6000,1932,36,244,,Active,,,http://www.redfin.com/CA/Oakland/5432-Foothill-Blvd-94601/home/57181093,Bridge MLS,40840810,N,Y,37.7728577,-122.1975077
MLS Listing,,Single Family Residential,1505 Mitchell St,Oakland,CA,94601,529000,3,2.0,Fruitvale,1506,2490,1920,36,351,,Active,,,http://www.redfin.com/CA/Oakland/1505-Mitchell-St-94601/home/2044756,Bridge MLS,40840791,N,Y,37.7813084,-122.2300463
MLS Listing,,Single Family Residential,7994 Macarthur Blvd,Oakland,CA,94605,549950,0,,East Oakland,1392,10008,1923,36,395,,Active,,,http://www.redfin.com/CA/Oakland/7994-MacArthur-Blvd-94605/home/21839668,Bridge MLS,40840752,N,Y,37.7641441,-122.1658905
MLS Listing,,Single Family Residential,673 45Th St,Oakland,CA,94609,1115950,3,2.5,Oakland,1776,2500,2018,36,628,,Active,,,http://www.redfin.com/CA/Oakland/673-45th-St-94609/home/1562586,Bridge MLS,40840716,N,Y,37.833535,-122.2682356
MLS Listing,,Single Family Residential,2456 89th Ave,Oakland,CA,94605,550000,2,1.0,E Oakland,1022,4800,1941,37,538,,Active,,,http://www.redfin.com/CA/Oakland/2456-89th-Ave-94605/home/1458727,Bridge MLS,40840699,N,Y,37.7560688,-122.1620319
MLS Listing,,Single Family Residential,2026 Myrtle St,Oakland,CA,94607,945000,4,2.5,West Oak,2036,2850,2008,38,464,,Active,,,http://www.redfin.com/CA/Oakland/2026-Myrtle-St-94607/home/12298290,Bridge MLS,40840639,N,Y,37.81336,-122.2799876
MLS Listing,,Single Family Residential,865 34TH St,Oakland,CA,94608,699000,3,3.0,West Oakland,2173,3434,1911,39,322,,Active,,,http://www.redfin.com/CA/Oakland/865-34th-St-94608/home/2004742,Bridge MLS,40840584,N,Y,37.8242049,-122.274361
MLS Listing,,Multi-Family (2-4 Unit),925 E 11Th St,Oakland,CA,94606,714000,4,2.0,Clinton Park,2265,6750,1897,39,315,,Active,,,http://www.redfin.com/CA/Oakland/925-E-11th-St-94606/home/1397925,Bridge MLS,40840570,N,Y,37.7909606,-122.2522502
MLS Listing,,Single Family Residential,1006 57Th St,Oakland,CA,94608,839000,3,2.0,Oakland,1396,4000,1908,39,601,,Active,,,http://www.redfin.com/CA/Oakland/1006-57th-St-94608/home/1285788,Bridge MLS,40840569,N,Y,37.8412413,-122.2787201
MLS Listing,,Multi-Family (2-4 Unit),832 7Th Ave,Oakland,CA,94606,735000,5,2.0,Oakland,2407,2250,1913,39,305,,Active,,,http://www.redfin.com/CA/Oakland/832-7th-Ave-94606/home/532171,Bridge MLS,40840557,N,Y,37.791883,-122.255194
MLS Listing,,Single Family Residential,2409 Ransom Ave,Oakland,CA,94601,699000,4,3.0,Harrington,1186,8750,1924,39,589,,Active,,,http://www.redfin.com/CA/Oakland/2409-Ransom-Ave-94601/home/1970529,Bridge MLS,40840556,N,Y,37.7847801,-122.2103647
MLS Listing,,Single Family Residential,6055 Rockwell St,Oakland,CA,94618,1600000,3,2.0,Rockridge,1749,6960,1936,39,915,,Active,,,http://www.redfin.com/CA/Oakland/6055-Rockwell-St-94618/home/844299,Bridge MLS,40840452,N,Y,37.8501865,-122.2490595
MLS Listing,,Single Family Residential,6588 Longwalk Dr,Oakland,CA,94611,1399000,4,4.0,Piedmont Pines,3170,7152,2018,39,441,,Active,,,http://www.redfin.com/CA/Oakland/6588-Longwalk-Dr-94611/home/39909827,Bridge MLS,40840441,N,Y,37.8248879,-122.1889502
MLS Listing,,Single Family Residential,2828 25Th Ave,Oakland,CA,94601,479000,2,1.0,Upper Fruitvale,933,4294,1920,39,513,,Active,,,http://www.redfin.com/CA/Oakland/2828-25th-Ave-94601/home/1888554,Bridge MLS,40840436,N,Y,37.7949076,-122.2227326
MLS Listing,,Single Family Residential,1000 89Th Ave,Oakland,CA,94621,399950,7,4.0,E Oakland,2400,7945,1911,39,167,,Active,,,http://www.redfin.com/CA/Oakland/1000-89th-Ave-94621/home/582735,Bridge MLS,40840421,N,Y,37.7474374,-122.1811903
MLS Listing,,Single Family Residential,1055 56Th St,Oakland,CA,94608,899950,4,1.5,Golden Gate,1680,3913,1905,40,536,,Active,,,http://www.redfin.com/CA/Oakland/1055-56th-St-94608/home/530300,Bridge MLS,40840394,N,Y,37.8391022,-122.2804306
MLS Listing,,Multi-Family (2-4 Unit),995 54Th St,Oakland,CA,94608,950000,,,Golden Gate,2418,4800,1910,40,393,,Active,,,http://www.redfin.com/CA/Oakland/995-54th-St-94608/home/2013351,Bridge MLS,40840389,N,Y,37.8381029,-122.27778
MLS Listing,,Single Family Residential,2457 65th Ave,Oakland,CA,94605,590000,3,3.0,Alameda County,1900,3999,1952,40,311,,Active,,,http://www.redfin.com/CA/Oakland/2457-65th-Ave-94605/home/1458553,BAREIS,21825402,N,Y,37.767794,-122.1875756
MLS Listing,,Multi-Family (2-4 Unit),1508 Magnolia St,Oakland,CA,94607,795000,3,2.0,Oakland,1818,4800,,40,437,,Active,,,http://www.redfin.com/CA/Oakland/1508-Magnolia-St-94607/home/1929077,San Francisco MLS,476782,N,Y,37.8106292,-122.2867215
MLS Listing,,Single Family Residential,5 Diablo Dr,Oakland,CA,94611,2600000,5,5.5,Montclair Hills,4722,7280,2003,40,551,,Active,,,http://www.redfin.com/CA/Oakland/5-Diablo-Dr-94611/home/2017900,Bridge MLS,40840300,N,Y,37.8473122,-122.2009216
MLS Listing,,Single Family Residential,3714 keller Ave,Oakland,CA,94605,768000,4,2.5,Eastmont,2451,5000,1942,41,313,,Active,,,http://www.redfin.com/CA/Oakland/3714-Keller-Ave-94605/home/1289987,Bridge MLS,40840254,N,Y,37.7698437,-122.1584394
MLS Listing,,Multi-Family (2-4 Unit),1714 33rd Ave,Oakland,CA,94601,649000,5,2.0,Oakland,1946,2100,1925,41,334,,Active,November-10-2018 01:00 PM,November-10-2018 04:00 PM,http://www.redfin.com/CA/Oakland/1714-33rd-Ave-94601/home/963292,Bridge MLS,40840245,N,Y,37.7813721,-122.222511
MLS Listing,,Single Family Residential,6281 Aspinwall Rd,Oakland,CA,94611,1449888,4,4.0,Montclair Hills,2959,13648,1935,41,490,,Active,,,http://www.redfin.com/CA/Oakland/6281-Aspinwall-Rd-94611/home/1357593,Bridge MLS,40840056,N,Y,37.8380772,-122.2062861
MLS Listing,,Single Family Residential,5021 E 12Th St,Oakland,CA,94601,449000,4,1.0,East Oakland,874,2750,1900,42,514,,Active,,,http://www.redfin.com/CA/Oakland/5021-E-12th-St-94601/home/1041146,Bridge MLS,40839952,N,Y,37.7671983,-122.2103204
MLS Listing,,Single Family Residential,2639 Ritchie St,Oakland,CA,94605,499000,4,2.0,Eastmont,1147,4440,1923,42,435,,Active,,,http://www.redfin.com/CA/Oakland/2639-Ritchie-St-94605/home/1981525,Bridge MLS,40839951,N,Y,37.7630321,-122.1704917
MLS Listing,,Multi-Family (2-4 Unit),,Oakland,CA,94610,898000,4,2.0,Oakland,1876,4400,1947,43,479,,Active,,,http://www.redfin.com/CA/Oakland/Undisclosed-address-94610/home/535196,Bridge MLS,40839862,N,Y,37.8033236,-122.2367833
MLS Listing,,Single Family Residential,7875 Garfield Ave,Oakland,CA,94605,597950,4,2.5,Eastmont Mall,1774,2500,1920,43,337,,Active,,,http://www.redfin.com/CA/Oakland/7875-Garfield-Ave-94605/home/573767,Bridge MLS,40839813,N,Y,37.7630875,-122.172055
MLS Listing,,Multi-Family (2-4 Unit),2223 E 23rd St,Oakland,CA,94606,1188000,12,6.0,Oakland,3981,7000,1898,45,298,,Active,,,http://www.redfin.com/CA/Oakland/2223-E-23rd-St-94606/home/1329197,Bridge MLS,40839757,N,Y,37.790628,-122.231358
MLS Listing,,Single Family Residential,13514 Campus Dr,Oakland,CA,94605,3100000,6,6.0,Ridgemont,5901,16197,2006,46,525,,Active,,,http://www.redfin.com/CA/Oakland/13514-Campus-Dr-94605/home/17188178,Bridge MLS,40839676,N,Y,37.7825341,-122.1579737
MLS Listing,,Single Family Residential,1214 91st Ave,OAKLAND,CA,94603,368000,2,1.0,OAKLAND,672,2725,1926,46,548,,Active,,,http://www.redfin.com/CA/Oakland/1214-91st-Ave-94603/home/586532,MLSListings,ML81724628,N,Y,37.7476718,-122.1768999
MLS Listing,,Single Family Residential,6488 Melville Ln,Oakland,CA,94611,959000,4,3.0,Piedmont Pines,2166,5520,1959,46,443,,Active,,,http://www.redfin.com/CA/Oakland/6488-Melville-Ln-94611/home/1330801,Bridge MLS,40839530,N,Y,37.8232577,-122.1875756
MLS Listing,,Single Family Residential,567 Aileen St,Oakland,CA,94609,988800,2,2.0,Idora Park,1554,4480,1931,46,636,,Active,,,http://www.redfin.com/CA/Oakland/567-Aileen-St-94609/home/1362048,Bridge MLS,40839491,Y,Y,37.8417824,-122.2636385
MLS Listing,,Single Family Residential,5951 Grizzly Peak Blvd,Oakland,CA,94611,1250000,3,3.0,Montclair,2272,22586,1995,47,550,,Active,,,http://www.redfin.com/CA/Oakland/5951-Grizzly-Peak-Blvd-94611/home/552732,Bridge MLS,40839440,N,Y,37.8530282,-122.2115395
MLS Listing,,Single Family Residential,5247 Desmond St,Oakland,CA,94618,2250000,4,3.5,Rockridge,2994,4440,1914,48,752,,Active,,,http://www.redfin.com/CA/Oakland/5247-Desmond-St-94618/home/529836,Bridge MLS,40839135,N,Y,37.837256,-122.2523832
MLS Listing,,Single Family Residential,5876 Ocean View Dr,Oakland,CA,94618,1595000,3,1.5,College Avenue,2018,4400,1912,48,790,,Active,,,http://www.redfin.com/CA/Oakland/5876-Ocean-View-Dr-94618/home/1881303,Bridge MLS,40839109,N,Y,37.845783,-122.24597
MLS Listing,,Single Family Residential,5834 Skyline Blvd,Oakland,CA,94611,1948000,4,4.0,Oakland,3005,29058,2010,48,648,,Active,,,http://www.redfin.com/CA/Oakland/5834-Skyline-Blvd-94611/home/40086798,San Francisco MLS,476334,N,Y,37.8536597,-122.2120936
MLS Listing,,Single Family Residential,5834 Skyline Blvd,Oakland,CA,94611,1948000,4,4.0,Montclair,3005,29058,2010,48,648,,Active,,,http://www.redfin.com/CA/Oakland/5834-Skyline-Blvd-94611/home/28764055,Bridge MLS,40839106,N,Y,37.8536597,-122.2120936
MLS Listing,,Multi-Family (2-4 Unit),7528 Garfield Ave,Oakland,CA,94605,399000,2,2.0,Oakland,1296,3701,1947,49,308,,Active,,,http://www.redfin.com/CA/Oakland/7528-Garfield-Ave-94605/home/1728044,Bridge MLS,40839018,N,Y,37.7655275,-122.173962
MLS Listing,,Single Family Residential,2500 83rd Ave,Oakland,CA,94605,275000,3,1.0,Oakland,1126,4305,1926,50,244,,Active,,,http://www.redfin.com/CA/Oakland/2500-83rd-Ave-94605/home/584758,Bridge MLS,40838975,N,Y,37.7613597,-122.1653583
MLS Listing,,Multi-Family (2-4 Unit),1203 54th St,Emeryville,CA,94608,925000,4,2.0,Emeryville,1760,4134,1944,51,526,,Active,,,http://www.redfin.com/CA/Oakland/1203-54th-St-94608/home/634384,Bridge MLS,40838834,N,Y,37.837185,-122.284623
MLS Listing,,Multi-Family (2-4 Unit),1222 84Th Ave,Oakland,CA,94621,515000,4,2.0,Oakland,2110,6500,1958,53,244,,Active,,,http://www.redfin.com/CA/Oakland/1222-84th-Ave-94621/home/1667666,Bridge MLS,40838751,N,Y,37.75257,-122.1802591
MLS Listing,,Multi-Family (2-4 Unit),968 45th St,Oakland,CA,94608,1900000,8,4.0,Alameda County,2970,5001,1966,53,640,,Active,,,http://www.redfin.com/CA/Oakland/968-45th-St-94608/home/1585848,BAREIS,21824287,N,Y,37.8350161,-122.274804
MLS Listing,,Single Family Residential,8430 Outlook Ave,Oakland,CA,94605-4135,650000,3,2.5,Toler Heights,1584,13740,1960,53,410,,Active,,,http://www.redfin.com/CA/Oakland/8430-Outlook-Ave-94605/home/1628779,Bridge MLS,40838715,N,Y,37.763077,-122.1591047
MLS Listing,,Single Family Residential,1437 77Th Ave,Oakland,CA,94621,399000,2,1.0,East Oakland,885,2500,1926,54,451,,Active,,,http://www.redfin.com/CA/Oakland/1437-77th-Ave-94621/home/1881989,Bridge MLS,40838450,N,Y,37.7586355,-122.1836403
MLS Listing,,Single Family Residential,1170 Ocean Ave,Oakland,CA,94608,600000,2,1.0,Emeryville,882,3924,1910,54,680,,Active,,,http://www.redfin.com/CA/Oakland/1170-Ocean-Ave-94608/home/1416942,Bridge MLS,40838371,N,Y,37.8469667,-122.2867215
MLS Listing,,Single Family Residential,1831 Drake Dr,Oakland,CA,94611,1695000,5,4.0,Montclair,3051,7215,1937,55,556,,Active,November-11-2018 02:00 PM,November-11-2018 04:30 PM,http://www.redfin.com/CA/Oakland/1831-Drake-Dr-94611/home/617703,Bridge MLS,40838242,N,Y,37.8304907,-122.2072836
MLS Listing,,Single Family Residential,16 Observation Pl,Oakland,CA,94611-1009,1490000,4,3.0,Montclair Hills,3163,11326,1999,55,471,,Active,,,http://www.redfin.com/CA/Oakland/16-Observation-Pl-94611/home/1447407,Bridge MLS,40838220,N,Y,37.848525,-122.2030497
MLS Listing,,Single Family Residential,1180 61st Ave,Oakland,CA,94621,388000,2,1.0,East Oakland,836,4000,1922,55,464,,Active,,,http://www.redfin.com/CA/Oakland/1180-61st-Ave-94621/home/1571972,Bridge MLS,40838210,N,Y,37.7614962,-122.2016309
MLS Listing,,Single Family Residential,470 61st St,Oakland,CA,94609,945000,3,2.0,Lower Rockridge,1000,3168,1922,55,945,,Active,,,http://www.redfin.com/CA/Oakland/470-61st-St-94609/home/531903,Bridge MLS,40838132,N,Y,37.8475202,-122.2600937
MLS Listing,,Single Family Residential,927 40Th Ave,Oakland,CA,94601,399000,4,2.0,Fruitvale Area,1774,4850,1900,55,225,,Active,,,http://www.redfin.com/CA/Oakland/927-40th-Ave-94601/home/2005383,Bridge MLS,40838064,N,Y,37.7716758,-122.220206
MLS Listing,,Single Family Residential,925 40Th Ave,Oakland,CA,94601,399000,2,1.0,Fruitvale Area,1400,4875,1909,56,285,,Active,,,http://www.redfin.com/CA/Oakland/925-40th-Ave-94601/home/556005,Bridge MLS,40838062,N,Y,37.7715402,-122.2201616
MLS Listing,,Single Family Residential,2621 75TH Ave,Oakland,CA,94605,329000,1,1.0,Oakland,612,2500,1917,56,538,,Active,,,http://www.redfin.com/CA/Oakland/2621-75th-Ave-94605/home/1533045,Bridge MLS,40838005,N,Y,37.766201,-122.174138
MLS Listing,,Single Family Residential,1270 62nd St,EMERYVILLE,CA,94608,1191000,6,4.0,EMERYVILLE,2809,6150,1919,56,424,,Active,,,http://www.redfin.com/CA/Emeryville/1270-62nd-St-94608/home/1809979,MLSListings,ML81722903,N,Y,37.8439849,-122.287829
MLS Listing,,Single Family Residential,3232 Magnolia,Oakland,CA,94608,950000,4,2.0,Near Emeryville,1400,4997,1889,56,679,,Active,,,http://www.redfin.com/CA/Oakland/3232-Magnolia-St-94608/home/1328100,Bridge MLS,40837951,N,Y,37.8246078,-122.2815936
MLS Listing,,Single Family Residential,1423 15Th St,Oakland,CA,94607,540000,5,2.0,Oakland West,1229,2079,1892,57,439,,Active,,,http://www.redfin.com/CA/Oakland/1423-15th-St-94607/home/1443708,Bridge MLS,40837912,N,Y,37.811559,-122.2920484
MLS Listing,,Single Family Residential,7070 Buckingham Blvd,Berkeley,CA,94705,1175000,4,3.5,Claremont Hills,2487,6509,1993,57,472,,Active,,,http://www.redfin.com/CA/Berkeley/7070-Buckingham-Blvd-94705/home/2037028,Bridge MLS,40837911,N,Y,37.8598993,-122.2220234
MLS Listing,,Single Family Residential,2454 67Th Ave,Oakland,CA,94605,465500,2,1.0,Havenscourt,1196,4000,1924,57,389,,Active,,,http://www.redfin.com/CA/Oakland/2454-67th-Ave-94605/home/747782,Bridge MLS,40837908,N,Y,37.7657588,-122.1856579
MLS Listing,,Single Family Residential,1839 100Th Ave,Oakland,CA,94603,299000,1,1.0,East Oakland,687,4025,1926,57,435,,Active,November-10-2018 12:00 PM,November-10-2018 02:00 PM,http://www.redfin.com/CA/Oakland/1839-100th-Ave-94603/home/1167102,Bridge MLS,40837860,N,Y,37.7444297,-122.1635953
MLS Listing,,Single Family Residential,5565 Moraga Ave,Oakland,CA,94611,1350000,4,4.0,Montclair,3175,11071,2003,57,425,,Active,,,http://www.redfin.com/CA/Piedmont/5565-Moraga-Ave-94611/home/607680,Bridge MLS,40837815,N,Y,37.8300809,-122.2228483
MLS Listing,,Single Family Residential,6839 Sherwick Dr,Berkeley,CA,94705,1600000,4,3.5,Claremont Hills,3590,6819,2006,58,446,,Active,,,http://www.redfin.com/CA/Berkeley/6839-Sherwick-Dr-94705/home/12110872,Bridge MLS,40837798,N,Y,37.8562404,-122.2233975
MLS Listing,,Multi-Family (2-4 Unit),3575 Lincoln Ave,Oakland,CA,94602-2909,795000,2,2.0,Diamond District,1608,3639,1924,59,494,,Active,,,http://www.redfin.com/CA/Oakland/3575-Lincoln-Ave-94602/home/2013620,Bridge MLS,40837771,N,Y,37.8011766,-122.2129359
MLS Listing,,Single Family Residential,3814 Magee Ave,Oakland,CA,94619,599000,2,2.0,Upper Laurel,1297,4200,1924,60,462,,Active,,,http://www.redfin.com/CA/Oakland/3814-Magee-Ave-94619/home/1716233,Bridge MLS,40837699,N,Y,37.7946544,-122.1969313
MLS Listing,,Single Family Residential,1192 77Th Ave,Oakland,CA,94621,345000,2,1.0,East Oakland,856,1802,1927,60,403,,Active,,,http://www.redfin.com/CA/Oakland/1192-77th-Ave-94621/home/1399090,Bridge MLS,40837668,N,Y,37.7557413,-122.1868662
MLS Listing,,Single Family Residential,1770 Goss St,Oakland,CA,94607,1200000,3,3.0,West Oakland,2292,3000,2018,60,524,,Active,,,http://www.redfin.com/CA/Oakland/1770-Goss-St-94607/home/22725903,Bridge MLS,40837585,N,Y,37.8080366,-122.3026074
MLS Listing,,Single Family Residential,3344 Brookdale Ave,Oakland,CA,94602,599000,2,2.0,Alameda County,1500,9100,1946,60,399,,Active,,,http://www.redfin.com/CA/Oakland/3344-Brookdale-Ave-94602/home/1465344,BAREIS,21823552,N,Y,37.7902257,-122.211207
MLS Listing,,Single Family Residential,5008 Manila,Oakland,CA,94609,849000,3,2.0,Temescal/R.Ridge,1010,3999,1926,60,841,,Active,,,http://www.redfin.com/CA/Oakland/5008-Manila-Ave-94609/home/1255830,Bridge MLS,40837541,N,Y,37.8355066,-122.2553082
MLS Listing,,Single Family Residential,6077 Contra Costa Rd,Oakland,CA,94618,2300000,5,3.5,Upper Rockridge,3550,8666,1995,60,648,,Active,November-11-2018 02:00 PM,November-11-2018 04:30 PM,http://www.redfin.com/CA/Oakland/6077-Contra-Costa-Rd-94618/home/606096,Bridge MLS,40837534,N,Y,37.8458199,-122.2324619
MLS Listing,,Multi-Family (2-4 Unit),3114 San Pablo Ave,Oakland,CA,94608,797000,,,Near Emeryville,2711,1740,1910,61,294,,Active,,,http://www.redfin.com/CA/Oakland/3114-San-Pablo-Ave-94608/home/146984808,Bridge MLS,40837322,N,Y,37.8218998,-122.2766316
MLS Listing,,Single Family Residential,3115 Hyde St,Oakland,CA,94601,798000,3,2.5,Foothill,1946,4040,1938,62,410,,Active,,,http://www.redfin.com/CA/Oakland/3115-Hyde-St-94601/home/772295,Bridge MLS,40837121,N,Y,37.7885816,-122.2213585
MLS Listing,,Single Family Residential,250 Capricorn Ave,Oakland,CA,94611,699000,2,1.0,Montclair,797,11310,1939,62,877,,Active,November-11-2018 02:00 PM,November-11-2018 04:30 PM,http://www.redfin.com/CA/Oakland/250-Capricorn-Ave-94611/home/1965215,Bridge MLS,40837010,N,Y,37.8383177,-122.2179452
MLS Listing,,Multi-Family (2-4 Unit),2242 Harrington Ave,Oakland,CA,94601,899975,8,4.0,Oakland,3387,5900,1964,62,266,,Active,,,http://www.redfin.com/CA/Oakland/2242-Harrington-Ave-94601/home/1563571,Bridge MLS,40836990,N,Y,37.7845238,-122.2121823
MLS Listing,,Multi-Family (2-4 Unit),2727 West St,Oakland,CA,94612,689000,5,4.0,Oakland,2870,4500,1902,63,240,,Active,,,http://www.redfin.com/CA/Oakland/2727-West-St-94612/home/525545,Bridge MLS,40836921,N,Y,37.818146,-122.274326
MLS Listing,,Townhouse,5907 Vallejo St Unit A,Emeryville,CA,94608,749000,2,2.0,Emeryville,1192,975,1991,63,628,,Active,November-11-2018 02:00 PM,November-11-2018 05:00 PM,http://www.redfin.com/CA/Emeryville/5907-Vallejo-St-94608/unit-A/home/124452775,Bridge MLS,40836880,N,Y,37.842171,-122.286705
MLS Listing,,Multi-Family (2-4 Unit),8421 DOWLING St,Oakland,CA,94605,480000,3,2.0,Oakland,1644,3750,1920,63,292,,Active,,,http://www.redfin.com/CA/Oakland/8421-Dowling-St-94605/home/1619473,Bridge MLS,40836828,N,Y,37.7588467,-122.1674871
MLS Listing,,Multi-Family (2-4 Unit),1169 75Th Ave,Oakland,CA,94621,579000,4,3.0,Oakland,1742,10000,1925,65,332,,Active,,,http://www.redfin.com/CA/Oakland/1169-75th-Ave-94621/home/1930519,Bridge MLS,40836719,N,Y,37.7568045,-122.1886398
MLS Listing,,Single Family Residential,6055 Grizzly Peak Blvd,Oakland,CA,94611,875000,3,3.0,Montclair Hills,1791,10500,1975,66,489,,Active,,,http://www.redfin.com/CA/Oakland/6055-Grizzly-Peak-Blvd-94611/home/844800,Bridge MLS,40836690,N,Y,37.8518235,-122.2098438
MLS Listing,,Single Family Residential,1423 37Th Ave,Oakland,CA,94601,599800,3,2.0,Fruitvale Area,1544,3136,1910,67,388,,Active,,,http://www.redfin.com/CA/Oakland/1423-37th-Ave-94601/home/1096502,Bridge MLS,40836625,N,Y,37.7759078,-122.2206603
MLS Listing,,Multi-Family (2-4 Unit),9510 Hillside St,Oakland,CA,94603,669950,,,Oakland,1730,5000,1951,67,387,,Active,,,http://www.redfin.com/CA/Oakland/9510-Hillside-St-94603/home/594489,Bridge MLS,40836590,N,Y,37.7514792,-122.1610562
MLS Listing,,Townhouse,1016 SAN FRANCISCO Ct,Oakland,CA,94601,650000,3,2.0,Oakland,1324,1534,1997,67,491,291,Active,,,http://www.redfin.com/CA/Oakland/1016-San-Francisco-Ct-94601/home/1095846,Bridge MLS,40836541,N,Y,37.7765849,-122.2321388
MLS Listing,,Single Family Residential,1915 102Nd Ave,Oakland,CA,94603,450000,2,1.0,Ivy Wood Ext.,820,3348,1922,67,549,,Active,,,http://www.redfin.com/CA/Oakland/1915-102nd-Ave-94603/home/1096817,Bridge MLS,40836538,N,Y,37.7432599,-122.1620763
MLS Listing,,Single Family Residential,5737 Kingsley Cir,Oakland,CA,94605,415000,4,2.5,Oakland,858,2200,1924,68,484,,Active,,,http://www.redfin.com/CA/Oakland/5737-Kingsley-Cir-94605/home/566923,Bridge MLS,40836483,N,Y,37.7730516,-122.1911229
MLS Listing,,Multi-Family (2-4 Unit),8213 International Blvd,Oakland,CA,94621,590000,2,1.0,Oakland,2253,3244,1916,68,262,,Active,,,http://www.redfin.com/CA/Oakland/8213-International-Blvd-94621/home/146946431,San Francisco MLS,475216,N,Y,37.7551217,-122.1791061
MLS Listing,,Single Family Residential,1451 88Th Ave,Oakland,CA,94621,469900,4,1.5,Oakland,1578,4600,1900,70,298,,Active,,,http://www.redfin.com/CA/Oakland/1451-88th-Ave-94621/home/1891798,Bridge MLS,40836216,N,Y,37.7517046,-122.1744054
MLS Listing,,Multi-Family (2-4 Unit),1922 Harrington Ave,OAKLAND,CA,94601,798888,9,,OAKLAND,3195,5430,1922,71,250,,Active,,,http://www.redfin.com/CA/Oakland/1922-Harrington-Ave-94601/home/553212,MLSListings,ML81720725,N,Y,37.7802065,-122.2169256
MLS Listing,,Single Family Residential,9821 Sunnyside St,Oakland,CA,94603,475000,2,1.0,Oakland,1343,7500,1938,71,354,,Active,,,http://www.redfin.com/CA/Oakland/9821-Sunnyside-St-94603/home/594322,Bridge MLS,40836089,N,Y,37.7472596,-122.1627859
MLS Listing,,Single Family Residential,7 Woodmont Way,Oakland,CA,94611,2980000,5,4.0,Montclair,5830,14778,1996,74,511,,Active,,,http://www.redfin.com/CA/Oakland/7-Woodmont-Way-94611/home/2000195,Bridge MLS,40835906,N,Y,37.8584634,-122.2140442
MLS Listing,,Multi-Family (2-4 Unit),1658 34th Ave,Oakland,CA,94601,1595000,11,7.0,Alameda County,5540,7920,1989,75,288,,Active,,,http://www.redfin.com/CA/Oakland/1658-34th-Ave-94601/home/866997,BAREIS,21822200,N,Y,37.7804905,-122.2214915
MLS Listing,,Single Family Residential,581 Valle Vista Ave,Oakland,CA,94610,1349000,5,3.0,Grand Lake/ Rose,2900,5680,1926,75,465,,Active,,,http://www.redfin.com/CA/Oakland/581-Valle-Vista-Ave-94610/home/1924474,Bridge MLS,40835633,N,Y,37.8160928,-122.2469324
MLS Listing,,Multi-Family (2-4 Unit),1631 22Nd Ave,Oakland,CA,94606,750000,4,3.0,Oakland,2284,3600,1940,76,328,,Active,,,http://www.redfin.com/CA/Oakland/1631-22nd-Ave-94606/home/608040,Bridge MLS,40835456,N,Y,37.786853,-122.2360853
MLS Listing,,Single Family Residential,3225 helen,Oakland,CA,94608,1300000,2,1.0,Emeryville Bordr,902,6650,1896,77,1441,,Active,,,http://www.redfin.com/CA/Oakland/3225-Helen-St-94608/home/1482074,Bridge MLS,40835323,N,Y,37.8241735,-122.2861456
MLS Listing,,Single Family Residential,1008 Aileen St,Oakland,CA,94608,850000,3,1.0,Golden Gate,1276,4000,1914,78,666,,Active,,,http://www.redfin.com/CA/Oakland/1008-Aileen-St-94608/home/908839,Bridge MLS,40835254,N,Y,37.8405379,-122.2786585
MLS Listing,,Single Family Residential,1429 66th Ave,Oakland,CA,94621,530000,4,2.0,Havenscourt Area,1826,5000,1937,80,290,,Active,,,http://www.redfin.com/CA/Oakland/1429-66th-Ave-94621/home/1341799,Bridge MLS,40835066,N,Y,37.7629693,-122.1932512
MLS Listing,,Townhouse,19 Moss Ln,Oakland,CA,94608,725000,2,2.0,Oakland,1350,,2005,81,537,213,Active,,,http://www.redfin.com/CA/Oakland/19-Moss-Ln-94608/home/17187214,San Francisco MLS,474641,N,Y,37.8222671,-122.2881631
MLS Listing,,Single Family Residential,2314 E 22nd St,Oakland,CA,94601,599000,4,2.0,Oakland,1677,3840,1910,82,357,,Active,,,http://www.redfin.com/CA/Oakland/2314-E-22nd-St-94601/home/537939,San Francisco MLS,474661,N,Y,37.789383,-122.230358
MLS Listing,,Single Family Residential,908 Alma Pl,Oakland,CA,94610,1425000,3,3.0,Crocker Hghlands,2474,8100,1923,84,576,16,Active,,,http://www.redfin.com/CA/Oakland/908-Alma-Pl-94610/home/2025608,Bridge MLS,40834415,N,Y,37.8061372,-122.2330603
MLS Listing,,Multi-Family (2-4 Unit),914 E 18Th St,Oakland,CA,94606,899000,9,4.5,Oakland,2761,4000,1910,84,326,,Active,,,http://www.redfin.com/CA/Oakland/914-E-18th-St-94606/home/1030368,Bridge MLS,40834385,N,Y,37.795357,-122.246348
MLS Listing,,Single Family Residential,130 Sonia St,Oakland,CA,94618,1199000,4,2.0,Upper Rockridge,2192,4600,1937,84,547,,Active,,,http://www.redfin.com/CA/Oakland/130-Sonia-St-94618/home/1881390,Bridge MLS,40834383,N,Y,37.837104,-122.2286279
MLS Listing,,Single Family Residential,4711 Fairfax Ave,Oakland,CA,94601,634900,3,3.0,Fruitvale,1600,5000,1910,84,397,,Active,,,http://www.redfin.com/CA/Oakland/4711-Fairfax-Ave-94601/home/559410,Bridge MLS,40834300,N,Y,37.7791876,-122.2043797
MLS Listing,,Multi-Family (5+ Unit),3251 Martin Luther King Jr Way,OAKLAND,CA,94609,1095000,7,,OAKLAND,2856,3824,1914,85,383,,Active,,,http://www.redfin.com/CA/Oakland/3251-Martin-Luther-King-Jr-Way-94609/home/1284417,MLSListings,ML81718782,N,Y,37.8222417,-122.2705839
MLS Listing,,Single Family Residential,1902 88Th Ave,Oakland,CA,94621,354000,1,1.0,88th Ave/D St,662,2400,1920,85,535,,Active,,,http://www.redfin.com/CA/Oakland/1902-88th-Ave-94621/home/773301,Bridge MLS,40834190,N,Y,37.7533502,-122.1701037
MLS Listing,,Single Family Residential,940 72nd Ave,Oakland,CA,94621,369950,3,1.0,Eastmont,978,2500,1952,86,378,,Active,,,http://www.redfin.com/CA/Oakland/940-72nd-Ave-94621/home/1457019,Bridge MLS,40834159,N,Y,37.7554805,-122.1939939
MLS Listing,,Single Family Residential,2121 Filbert St,Oakland,CA,94607,490000,4,2.0,West Oak,1484,5364,1982,87,330,,Active,,,http://www.redfin.com/CA/Oakland/2121-Filbert-St-94607/home/1420984,Bridge MLS,40834150,N,Y,37.8142703,-122.2812724
MLS Listing,,Single Family Residential,1244 61st Ave,Oakland,CA,94621,430000,3,1.0,Oakland,1109,3500,1955,88,388,,Active,,,http://www.redfin.com/CA/Oakland/1244-61st-Ave-94621/home/923195,Bridge MLS,40833966,N,Y,37.762268,-122.2005669
MLS Listing,,Single Family Residential,3131 Boston Ave,Oakland,CA,94602,538000,2,1.5,Oakland,940,2448,1912,89,572,,Active,,,http://www.redfin.com/CA/Oakland/3131-Boston-Ave-94602/home/1803404,Bridge MLS,40833803,N,Y,37.7961847,-122.2143656
MLS Listing,,Multi-Family (5+ Unit),,Oakland,CA,94605-1445,999000,,,Oakland,3830,11750,1946,89,261,,Active,,,http://www.redfin.com/CA/Oakland/Undisclosed-address-94605/home/17188188,Bridge MLS,40833775,N,Y,37.7687102,-122.191788
MLS Listing,,Single Family Residential,1756 9Th St,Oakland,CA,94607,549000,6,1.0,West Oak,852,1836,1893,90,644,,Active,,,http://www.redfin.com/CA/Oakland/1756-9th-St-94607/home/1156803,Bridge MLS,40833681,N,Y,37.8098341,-122.3009285
MLS Listing,,Multi-Family (2-4 Unit),2925 35Th Ave,Oakland,CA,94619,1088800,6,5.0,Oakland,3516,6875,1946,90,310,,Active,,,http://www.redfin.com/CA/Oakland/2925-35th-Ave-94619/home/1699289,Bridge MLS,40833560,N,Y,37.7901892,-122.2071728
MLS Listing,,Single Family Residential,1918 E 17Th St,Oakland,CA,94606,350000,3,2.0,San Antonio Park,1248,5250,1984,91,280,,Active,,,http://www.redfin.com/CA/Oakland/1918-E-17th-St-94606/home/532811,Bridge MLS,40833456,N,Y,37.7889346,-122.2380243
MLS Listing,,Single Family Residential,5829 Kingsley Cir,Oakland,CA,94605-1331,439000,2,1.0,Oakland,739,2079,1924,91,594,,Active,,,http://www.redfin.com/CA/Oakland/5829-Kingsley-Cir-94605/home/567329,Bridge MLS,40833400,N,Y,37.7724214,-122.1904689
MLS Listing,,Single Family Residential,1430 15Th St,Oakland,CA,94607,560000,4,1.0,West Oak,1207,2625,1889,92,464,,Active,,,http://www.redfin.com/CA/Oakland/1430-15th-St-94607/home/2004698,Bridge MLS,40833342,N,Y,37.8119145,-122.291982
MLS Listing,,Multi-Family (2-4 Unit),7106 Lockwood St,Oakland,CA,94621,749999,5,3.0,Oakland,1994,4880,1930,94,376,,Active,,,http://www.redfin.com/CA/Oakland/7106-Lockwood-St-94621/home/1670968,Bridge MLS,40833196,N,Y,37.7640585,-122.1817224
MLS Listing,,Single Family Residential,6760 Oakwood Dr,Oakland,CA,94611,1399000,4,4.0,Montclair,3415,9789,2005,95,410,,Active,,,http://www.redfin.com/CA/Oakland/6760-Oakwood-Dr-94611/home/623861,Bridge MLS,40833131,N,Y,37.8419956,-122.1990595
MLS Listing,,Single Family Residential,5411 Brookdale Ave,Oakland,CA,94619,950000,2,1.0,Mis-Match,953,3500,1918,95,997,,Active,,,http://www.redfin.com/CA/Oakland/5411-Brookdale-Ave-94619/home/559892,Bridge MLS,40833071,N,Y,37.77471,-122.196248
MLS Listing,,Single Family Residential,2549 Monticello Ave,Oakland,CA,94601,619000,3,1.0,Maxwell  Park,1068,3502,1928,95,580,,Active,,,http://www.redfin.com/CA/Oakland/2549-Monticello-Ave-94601/home/1323198,Bridge MLS,40833047,N,Y,37.7784078,-122.1997245
